Lat,Long,City,Temperature,Humidity,Clouds,Wind Speed
61.05878779164627,-40.211975313663004,nanortalik,34.9,100,0,20.76
73.8382144986787,-18.439735977542313,illoqqortoormiut,-1.47,94,88,32.28
70.30301948157239,151.32046390576625,chokurdakh,-21.36,62,56,6.78
-29.258019959983933,176.25679391933,kaeo,74.32,100,80,5.1
-83.10194295437921,98.46252586935515,albany,-49.53,96,20,9.24
-11.75975672416999,128.32390181201282,nguiu,82.78,100,44,14.27
-6.662035379306985,43.02024156030103,sokoni,82.42,100,56,4.65
70.1190170733075,48.880453577009234,belushya guba,15.64,100,0,9.24
84.42085546965205,89.84998305412847,dikson,-8.31,66,68,8.23
-67.5685288740453,-173.36365008565699,vaini,27.79,100,24,21.54
-66.43474516693479,77.05614939255014,saint-philippe,21.76,100,88,49.39
55.50557324919214,20.285355744548696,pionerskiy,38.05,91,76,19.3
76.43229632190767,-135.50622888551925,tuktoyaktuk,-23.97,73,12,11.03
-79.56148669550862,146.87398913010372,hobart,-36.75,53,20,23.78
59.273166075562415,175.46668928779872,beringovskiy,25.9,100,20,20.09
-3.8005482876458245,-113.71577257944338,puerto ayora,77.02,100,92,8.34
-74.05289137218978,-167.26208389304313,avarua,25.99,100,88,24.67
13.404616434511482,126.77737519115391,alugan,82.96,100,0,17.96
-75.92900442928186,23.549856210435337,bredasdorp,-70.5,0,0,5.66
54.93812750261813,131.0379874818421,stoyba,9.88,61,20,2.64
41.76998607841168,-55.70368286662662,saint-pierre,43.36,100,68,16.51
-24.140001066782958,-26.28341799414511,caravelas,80.53,98,32,26.35
-79.17762568249047,35.65202496734025,port elizabeth,-69.42,0,0,5.32
26.099058528884882,78.49343421672461,bilaua,98.6,13,0,2.24
74.04691037474382,-117.76743332778518,yellowknife,-37.29,73,8,3.53
60.55850724941163,133.79810375899973,ust-maya,-6.69,58,8,2.75
-0.3702091187147971,104.2434438772878,simpang,79.99,98,68,5.99
-43.41269315501969,-46.76563454716131,rocha,58.03,100,80,9.13
83.00406184512585,39.79637646047803,tumannyy,-2.37,100,8,10.8
1.857702094526573,52.21845867422013,hobyo,82.33,100,0,10.02
66.53289510871599,76.15104273173165,novyy urengoy,5.11,85,48,9.24
-51.37257455514456,101.15144516539357,busselton,40.57,100,20,6.22
55.885393046813334,117.24991031513582,chara,4.39,38,12,6.22
9.842060824423044,151.87069545001555,kavieng,82.96,98,88,20.65
32.97032004987871,173.16535126885805,nikolskoye,64.24,95,92,26.46
-28.45062533659933,153.06337279562302,murwillumbah,69.8,94,75,6.93
-74.11173046002143,-9.079848697446323,cape town,-23.7,54,0,14.72
57.28897808262295,-109.80807028690904,grand centre,26.89,75,64,5.55
-8.297905186634324,-153.11429583498543,faanui,83.68,97,92,14.16
-15.435152344959349,130.79138220944282,port keats,92.59,36,36,9.91
-8.429497857335178,-10.04680722092857,georgetown,77.2,100,0,11.92
-32.235641482230804,-56.57404658027728,paso de los toros,55.96,83,24,2.86
84.70095308722642,-151.51220855590444,barrow,-29.73,50,0,4.88
85.30175617912602,159.62170287992797,cherskiy,-22.35,67,48,6.33
33.94209408830427,162.87376321138976,severo-kurilsk,53.89,100,92,22.32
0.4648220788670443,-8.58539980074272,harper,80.98,100,100,7.67
-85.37126684645524,-23.412872349563116,ushuaia,-39.45,62,0,28.59
-20.519757022601837,165.71220109994522,touho,79.18,100,80,19.08
58.56296565450393,-7.6033644380696614,stornoway,46.15,100,44,13.82
7.531021773189607,-119.53823632909356,cabo san lucas,80.44,100,36,16.28
-64.172956460451,62.583884003772255,taolanaro,27.7,100,88,45.25
19.679420152078293,81.12602620294382,kondagaon,93.4,27,0,4.21
73.56651053183936,-147.1704035871538,college,-10.02,89,24,26.13
30.492811527071296,-81.18775198122799,atlantic beach,45.05,70,1,5.82
-31.77398615196043,122.39735284322512,esperance,81.16,40,0,8.79
59.408869887987834,11.48262614560457,rakkestad,33.8,74,75,10.29
-25.345859171246758,28.068909271270996,mabopane,74.55,53,0,3.36
-68.61834949663347,-113.24605129061716,punta arenas,30.58,97,88,17.74
-23.355574827524165,58.074147617287565,souillac,80.89,100,8,22.1
33.62497556911954,-50.86882039492784,saint george,68.02,93,92,32.06
-78.38978035358905,6.870326420061019,hermanus,-49.08,0,8,6.67
31.561605634560735,142.84253098833716,katsuura,59.11,100,44,5.99
51.13978487846899,45.11933378386232,zhirnovsk,8.17,96,12,6.11
-55.02210261837347,169.7310261928625,bluff,43.54,100,32,33.96
7.42310388111558,-4.545143872868948,ndiekro,75.94,100,20,5.77
73.96751595927924,-41.98645651826618,tasiilaq,-56.19,0,8,3.98
-27.662134855488503,165.0614439895146,vao,73.42,100,92,12.03
9.824965828424254,-137.72067788719605,atuona,79.9,99,88,20.09
-64.3089751297208,-117.53953442095481,rikitea,34.36,98,92,29.37
33.087577092202835,-46.28160178016179,torbay,67.48,96,0,22.77
57.61074374220868,-10.538280087331088,killybegs,47.68,100,80,19.42
-0.5632560922433782,-177.07048994918804,vaitupu,81.52,99,0,6.78
5.429262068372893,164.01120783671894,butaritari,79.81,100,92,19.75
-17.165644030307504,32.324013296778276,mutoko,75.76,82,64,5.44
11.677326786513007,-103.44210463239344,san jeronimo,80.08,100,48,4.21
30.76268281157941,112.46857881083969,duobao,67.57,80,76,10.47
-16.97188545006871,60.08773990772602,grand gaube,82.96,100,64,30.15
15.836257216498112,-44.7228007196658,cayenne,74.14,100,32,21.32
-12.696629642610418,-0.1106760207868831,jamestown,74.68,100,92,13.49
-39.23228523377726,132.16035348825602,port lincoln,60.82,100,88,9.8
3.6697985107695814,-169.31095965960165,saleaula,82.06,100,0,15.73
23.2750121457064,-53.18297527837262,codrington,73.78,100,92,10.13
43.90793490667588,-0.8721951590485162,saint-paul-les-dax,50.0,76,0,3.36
-71.14014693417181,-162.12033568040752,mataura,25.72,100,12,33.06
-65.65424761745022,132.53252911365695,new norfolk,20.86,100,76,42.57
47.082784204235566,-124.37487058516612,hoquiam,55.4,50,1,16.11
6.775426690816474,9.679350082030027,wum,81.25,84,0,3.65
-2.6160864285076286,133.13084446163936,manokwari,83.14,89,32,8.9
55.39529891048457,-5.541520986884933,campbeltown,44.6,81,20,6.93
51.90279932920228,140.22023438170106,bogorodskoye,18.34,60,32,5.66
34.26752812926097,-86.81801570049257,cullman,31.66,75,1,4.7
-37.76771927450595,-34.67544997070286,arraial do cabo,67.84,100,88,21.32
30.346957491130908,-120.97134570645088,port hueneme,61.36,97,92,6.67
66.23659182809251,0.569206919930366,brae,39.4,100,48,15.5
-2.6657779655015474,18.157201259688833,nioki,83.14,77,0,2.98
-15.873272017331587,38.250308306045724,mocuba,79.36,84,68,3.65
-22.857181005644847,162.27984155761231,koumac,75.76,100,92,33.73
35.66656452539725,-156.0554208503078,kapaa,54.61,100,92,16.73
-3.345451114665792,165.50008928034464,auki,84.58,100,76,13.27
9.29639176599305,34.43406766628769,asosa,89.71,26,0,3.76
81.64914232404217,-66.35510855370345,narsaq,-29.46,93,36,3.76
59.834132119378154,8.276327322353836,rjukan,28.4,74,20,2.24
-23.528055963865327,77.87621841227673,grand river south east,76.66,100,48,22.77
44.44151760676965,12.538027357866468,cervia,58.39,58,40,9.17
66.94095585723178,98.76147098617724,tura,-11.73,70,24,3.76
17.21119412920706,-144.20703418533773,hilo,73.69,100,100,20.31
12.438811100250888,-96.22384389619704,pochutla,83.59,96,0,25.12
-33.84451469114412,45.00750347313962,tsihombe,69.73,98,64,16.84
61.5009985817116,117.1441599556133,suntar,3.22,55,48,7.11
88.65159077014565,111.62726702679942,saskylakh,-14.25,66,44,16.62
-4.045179223568724,52.342141431975335,victoria,83.32,100,92,16.84
59.22354845455297,150.73249324364014,magadan,2.59,100,48,6.67
-22.271664494335553,178.03241235954584,isangel,82.96,96,68,12.82
-29.060799364763852,86.74700897624439,carnarvon,71.89,100,68,21.54
81.79232449733851,103.8979555197181,khatanga,-6.78,76,56,14.83
68.94039529997863,-164.68038111604966,nome,-2.21,91,90,6.93
60.802533354771896,105.0503041637412,vanavara,3.76,53,0,8.46
37.549572882025785,-147.1243719549276,kahului,53.71,100,76,27.58
-7.199688743763446,22.25463572304176,dibaya,73.96,88,88,3.65
7.490984675958373,54.07998212595649,bandarbeyla,79.63,100,36,7.34
21.54568185712428,-48.05451251652025,bathsheba,74.14,100,0,13.82
73.37956099132737,-97.78586864937759,thompson,-31.08,53,8,5.32
55.37633870188577,113.53623070587241,severomuysk,8.08,38,44,8.01
-13.88489128548838,89.3985084231931,bengkulu,81.43,100,8,9.91
28.644674939851157,-67.20505457370962,hamilton,69.82,100,48,29.26
-0.5983972612622637,-27.649769117723025,touros,77.38,100,76,9.13
43.114238387140176,-110.25098900494419,jackson,16.88,85,1,3.36
45.860579669319606,-109.66644817677312,livingston,23.0,85,1,6.93
76.7811580014457,-168.80206164494132,lavrentiya,-8.13,81,68,30.6
-66.02176899853418,-20.400057116421237,chuy,32.29,97,68,20.76
32.84047487737527,-4.909239504417485,mrirt,47.05,43,32,3.98
3.4153695504355,-53.6277556876766,grand-santi,73.78,90,76,3.09
24.416475180440344,93.46009625769938,churachandpur,59.0,93,75,8.05
50.99118810258386,6.834758606159141,pulheim,44.56,87,75,25.28
50.252890478960836,28.25649792970421,chudniv,41.11,99,92,16.73
-32.23626068192272,130.7612467856755,flinders,68.02,100,0,18.97
19.361571819698256,26.646227265564562,marawi,82.69,18,0,9.35
-22.64851601716019,-55.13148317556167,caarapo,72.16,90,36,2.75
37.26205803427793,-104.44773777729506,trinidad,33.01,58,40,13.87
32.600877978917424,-112.14809145671258,casa grande,60.8,38,0,4.7
-5.6251138625645325,159.95203275870915,buala,86.11,97,8,5.1
-6.193866540987926,41.684946170440014,chake chake,82.15,100,36,8.01
66.63479369199882,-59.80083962564812,pangnirtung,5.56,84,76,8.79
54.147290593361134,-66.62861953598156,sept-iles,16.9,86,76,7.45
17.29975293463474,-68.92861632843545,la romana,79.99,95,0,12.82
-50.00567619287211,-25.86335250422195,cidreira,42.28,100,32,21.32
-5.23055151694814,168.90485329041002,lata,82.69,100,48,12.26
40.006728355367386,-75.05706494073469,pennsauken,32.76,95,90,3.36
3.6460197702957657,78.86470261405083,galle,81.88,100,44,8.23
23.726688665044293,131.59215843000243,nishihara,69.37,100,0,17.07
52.836012319048194,-103.58138737565216,kelvington,6.8,92,1,3.36
-24.072518910960824,-46.93393169899815,itanhaem,68.86,83,90,3.36
22.726207313763837,134.99757824860632,naze,71.26,100,76,21.32
66.96610723545493,45.54506235258603,mezen,20.68,100,68,7.45
48.98497032436072,-108.5740218123639,shaunavon,-1.38,52,0,3.09
31.335135210496887,117.38988848883207,lujiang,77.0,41,0,8.95
54.85487493817175,43.50242945544835,pervomaysk,21.04,84,76,11.03
38.44173417914476,127.20168659319938,seoul,54.97,56,0,8.68
-19.238101955541268,-90.47551997373303,hualmay,70.54,100,76,17.29
24.625176809691197,-37.423228436703965,ponta do sol,68.74,100,92,7.56
-48.43006765181612,-56.081183270111424,necochea,53.26,86,92,25.57
41.68230096835197,-81.45343271964356,eastlake,28.33,86,90,5.82
13.12157541087781,-21.5755504040649,vila do maio,73.78,94,0,15.28
13.461511043537442,23.162142458488574,adre,90.07,16,0,8.68
-11.524264916451514,177.6775434785519,asau,84.58,100,48,17.18
-14.816633000012843,-56.47723016309635,rosario oeste,72.61,96,56,2.98
-2.6146828792280274,-40.89711179995447,camocim,83.05,99,92,15.05
4.437168339727791,69.87856490580688,mahibadhoo,83.32,100,8,10.92
-50.425126652026954,25.273421015217707,kruisfontein,43.18,83,92,28.81
60.97909797917555,65.29620482823901,uray,20.14,61,8,7.45
-19.525719369781953,40.33386172943793,angoche,83.86,100,0,11.36
-20.681821067607615,157.40323605932156,hervey bay,76.03,100,100,40.67
4.736759483478323,28.598786819382155,yambio,77.11,80,92,4.76
-0.9567669190392252,108.80362635509925,pontianak,81.16,100,92,11.7
-60.22672056823287,-34.619815467896956,mar del plata,34.81,91,44,22.88
44.64874154787958,122.01329582769421,taonan,45.25,45,8,10.8
54.619301129177614,-177.9224936379835,provideniya,33.91,100,48,8.68
-2.1592427850651745,68.82108058863426,hithadhoo,85.3,100,8,7.34
71.12353675016013,129.39100373059193,tiksi,-24.87,75,24,3.42
60.84060923486956,154.524643158584,dukat,-17.31,71,24,1.63
18.60566001293992,142.6024022505295,airai,78.82,100,44,28.14
28.121734024909173,-43.12692816337366,ribeira grande,69.91,100,0,4.32
-16.409789845277786,-82.05941589100952,pisco,72.61,100,32,12.48
28.129267332005412,-95.48566901704413,freeport,62.6,59,90,5.82
17.265567074341277,-95.3694509105025,palomares,65.68,97,68,13.6
-63.54942578968445,46.25266719872752,east london,29.86,100,92,25.9
11.319885517057628,105.57804573899563,svay rieng,92.05,56,8,4.65
41.466920399142964,1.1473059641456587,tarrega,57.2,54,40,2.24
-8.7363007844599,111.87912847453288,boyolangu,86.11,100,12,5.55
23.323048387854286,89.55486051777746,naral,90.79,40,0,12.15
45.018379401644324,98.99679696100492,hovd,44.89,52,56,10.13
31.536611031413855,12.978166727913532,mizdah,67.39,37,0,3.65
-44.574992312206035,-103.7875524071335,castro,55.42,97,88,15.05
-13.518061386625192,-31.16184732901789,maceio,80.8,100,0,13.15
-23.591996252813445,-69.59536027181852,antofagasta,55.51,71,0,3.42
30.978212663008335,-87.86318366141222,saraland,43.43,75,1,4.7
56.19041972923554,-161.3689321389296,bethel,33.8,86,90,12.48
22.63335150157907,104.68554585364478,ha giang,61.09,86,92,2.64
32.828943232965244,151.04454150447702,hasaki,58.03,100,12,13.82
6.387414829123301,-47.76327936566241,saint-georges,78.1,100,80,22.88
47.64312848236557,128.5086339067003,cuiluan,28.24,62,0,4.32
66.8724741614935,34.138203087981566,umba,23.29,88,76,11.81
57.11744986885864,140.6304135627421,ayan,8.98,100,56,7.56
-6.455981454069061,12.754533636397014,soyo,82.96,89,76,6.11
17.13077258646466,57.81367908498163,salalah,77.29,100,0,4.99
80.72392981236507,-52.00831394672757,upernavik,-17.76,46,12,13.04
22.15433226783064,27.97575275542772,aswan,80.71,23,0,7.45
70.28761194789388,-14.390539416956528,husavik,29.32,100,76,11.48
-11.318475265385686,6.28989634160115,namibe,75.49,100,92,12.71
-22.281814039702823,146.883299531251,moranbah,84.76,33,0,10.69
44.98059260180926,-111.2075824923147,bozeman,17.67,92,1,1.86
-15.933808018816535,-179.601450928674,halalo,84.49,97,32,14.05
10.319697323069548,12.80865247529718,mubi,91.24,21,0,4.99
-32.304488173987174,20.11272611115973,calvinia,81.43,32,0,6.22
64.25347998842503,38.72641708787447,onega,25.81,84,92,5.44
42.473860267500555,18.54739060868033,trebinje,51.84,93,75,8.05
-40.390256658014756,139.23134289384893,mount gambier,61.72,100,88,13.49
55.20408897132509,127.04258130284734,zeya,16.72,47,56,3.87
-35.929568419973954,2.9473655130220493,saldanha,67.93,97,92,12.48
74.10746362820723,67.83994859367519,sovetskiy,-9.03,100,44,15.5
16.13396983423624,-94.94151059270168,san mateo del mar,76.12,94,0,31.83
17.253281928291074,113.12856947003667,wanning,76.39,100,0,12.71
22.969268383613084,-123.676042606143,san quintin,70.0,100,32,13.71
45.042895921932285,39.55152025616954,krasnogvardeyskoye,46.4,61,0,13.42
50.937363905568816,-103.23665270043756,melville,10.4,92,20,5.82
72.42628443341235,-178.4838739338338,mys shmidta,3.04,94,76,3.76
4.345621410917474,98.6449461809733,belawan,87.28,91,8,11.7
49.88488931950215,70.74547978335997,astana,28.06,100,24,8.34
-42.46102647337265,-99.4889565260953,ancud,58.48,99,92,28.03
23.633543105671308,52.24850299982879,abu samrah,80.62,78,0,12.26
8.421798377014227,5.60858664404779,lafiagi,88.36,62,0,9.69
-1.7370001011163367,110.55588724779966,pangkalanbuun,79.72,84,92,2.42
61.99246352716361,-122.12000030887016,fort nelson,24.8,85,20,5.82
53.73112174906632,-49.27744061737087,bonavista,35.71,100,24,22.32
37.199495749488335,142.3438730560905,namie,58.12,95,0,18.07
67.37741217548157,106.80419076220534,aykhal,-5.25,54,0,3.2
36.86226243649858,-1.55688507210769,aguilas,59.29,96,32,18.86
-25.074503455619308,37.04312088677909,inhambane,77.29,100,36,15.05
6.189286307307185,61.715625106722655,ugoofaaru,82.96,100,8,7.78
56.46788882971853,-0.17537507961955612,boddam,41.92,100,0,14.72
-29.041034140335306,33.84497736008481,richards bay,75.76,100,8,6.89
29.374066765603033,-76.36164063121413,marsh harbour,64.69,100,8,29.93
7.960550411400305,-80.57429593729407,parita,75.13,96,36,2.42
57.48178812310968,113.32081678006256,lugovskiy,6.64,50,48,5.77
55.78791915284589,-79.67066455044423,attawapiskat,12.22,100,64,0.18
89.90531041857093,64.26410145385995,amderma,-14.43,67,48,19.53
68.47312140828438,-126.7683974605433,norman wells,-7.68,61,20,1.41
60.64908010028941,163.1858613008498,ossora,-16.32,72,0,7.45
22.830399511243712,77.3562579952739,rehti,98.6,13,0,6.93
64.43366141980215,-46.44890273818359,qaqortoq,-11.19,54,48,8.46
-32.368351969299646,-64.52829127215627,rio tercero,51.91,80,0,9.01
42.78462974412267,45.343844861868746,itum-kale,36.07,72,0,0.74
14.731788034181406,-126.54847293508544,constitucion,74.86,100,88,16.84
-20.43078324307109,50.87322822022122,mahanoro,80.53,100,68,13.49
0.8051728273476897,-17.01543606129448,bonthe,79.81,100,88,9.01
-80.47698613750076,52.363054755029395,port alfred,-77.43,0,0,4.65
19.109997864307132,-131.90370134921562,lompoc,71.17,100,76,14.5
22.865174076316876,122.30906935836668,yuli,73.78,100,0,12.82
-9.300230793569796,16.27640429201702,malanje,73.24,89,68,2.64
7.503569735330231,-59.70949777262372,mabaruma,72.52,96,92,2.64
-14.069011380168476,99.59032344269951,labuhan,83.14,100,92,7.45
-17.74412920733988,-167.162274715544,alofi,82.69,100,80,15.28
43.714087127086344,-67.82935425023254,bar harbor,35.62,100,88,32.84
-24.09829491507736,5.034856798602277,henties bay,71.89,100,68,10.02
65.1712183360969,5.509358081560151,bud,40.48,100,36,17.52
54.685141670474735,-154.19485305416586,kodiak,38.59,100,92,5.21
46.82361221153198,140.4669868732057,nevelsk,36.52,100,92,4.76
27.66224477269847,127.8891440497411,nago,69.28,100,0,9.69
25.359442374713424,-12.89479998549632,puerto del rosario,60.73,63,0,9.8
19.017526030894132,65.71350052300303,dwarka,79.09,100,0,11.25
-13.840534292301243,151.15902655086353,samarai,83.41,100,0,12.93
26.999431145136825,91.34589280392083,pemagatsel,62.71,75,44,0.63
49.381710982635525,-101.6050819487444,carnduff,4.21,51,0,9.01
50.61684829578729,130.78069469006078,talakan,20.41,54,0,6.22
24.654101559475237,-104.72313513579384,canatlan,44.62,80,0,2.75
-16.2760568450784,-62.878662138109604,san javier,74.95,91,92,6.67
13.56559185101483,39.306728428445666,abiy adi,76.12,38,0,1.86
3.571287535472379,-18.70608202635296,goderich,79.54,100,56,6.78
69.06980535009859,87.8927415583301,kayerkan,-7.59,76,68,19.08
-30.05116930386731,106.44843648942958,geraldton,70.99,99,56,14.05
1.6740515496155979,39.29923995147462,wajir,84.85,73,68,11.48
37.03608607226428,14.386406612405153,niscemi,60.85,72,40,10.29
31.70429436278191,18.90631894663389,benghazi,63.34,98,8,8.57
58.677079746804054,40.35393461416234,gryazovets,29.14,94,92,18.97
55.923265933074646,-120.4024469816045,dawson creek,25.09,85,40,3.36
24.743478027744715,88.66448621822985,rajshahi,88.63,48,0,8.12
56.13645792894039,82.40250349238511,kolyvan,11.86,63,0,3.76
-15.825641011228555,115.50281694558277,karratha,86.11,100,0,2.64
47.38857605252707,-64.99884180119851,caraquet,26.6,92,90,3.36
5.86791458565763,-35.042607904264884,itarema,78.01,100,76,20.87
53.58538404239954,66.68962800013455,sergeyevka,15.28,91,0,9.46
-16.901141130417827,16.159501587537704,ondjiva,83.77,61,0,11.25
48.42756306689208,-57.91792737775867,stephenville crossing,32.0,88,75,5.82
50.41930820241009,138.8602685529424,vysokogornyy,18.88,69,36,2.98
20.193065837720454,144.43894877172465,shimoda,76.39,100,64,25.12
-25.90117420997403,-65.7115729086356,tucuman,42.01,70,0,1.19
-17.528799350642842,-49.901734742999366,edeia,70.27,92,24,5.66
-58.307403727792384,176.26182532134698,kaitangata,42.91,100,68,34.07
-10.340838273785593,133.24440683366305,maningrida,81.79,100,48,4.09
63.88835444712882,-79.52881130085619,iqaluit,5.56,100,56,14.05
52.27922760911687,78.7923814450453,kulunda,14.92,83,0,8.9
41.68097105381614,-89.97184761706806,clinton,27.3,79,75,5.82
7.522886904634035,116.97117597739333,balabac,84.2,83,75,9.17
82.87833538193061,37.245005290439366,vardo,0.7,96,0,10.47
36.903903077682784,77.61539837539385,shache,36.61,89,56,1.74
67.42351178888569,60.373798982241965,verkhnyaya inta,22.39,90,76,14.05
37.70245756928176,-4.72932985761156,fernan-nunez,57.2,87,75,5.82
-14.075734107959065,-38.824100855419914,marau,77.11,98,88,6.33
41.94534352822237,57.34760313028718,akdepe,33.1,100,12,8.46
45.650147205030464,-26.69209698486995,lagoa,54.79,100,80,18.19
25.763727804442624,-102.17982269809822,parras,44.89,50,0,6.78
-17.00266729107699,-29.583073836883045,belmonte,77.92,100,100,13.38
60.20706106410702,121.8080792431337,khani,2.5,55,44,7.23
-46.97088029085956,43.69987608744901,umzimvubu,47.59,91,0,27.13
-23.368190583372936,43.40122519728206,toliary,81.34,100,8,8.46
-26.4721808958475,-51.90334422263214,palmas,54.52,99,0,1.97
37.12433235009938,10.444329417870335,rafraf,61.83,45,20,13.87
3.7424754751834826,-46.44075161849284,salinopolis,80.08,100,56,22.77
-4.109486239723665,-162.91685362715148,samusu,80.71,100,80,13.82
52.16760107919944,-140.93663051228276,sitka,40.66,100,56,36.64
11.483207994557503,-88.21105400579219,corinto,80.08,100,0,6.44
49.78569913163568,-57.70106433246224,deer lake,32.0,92,90,6.93
55.18681872541464,-132.47429655186286,ketchikan,44.62,70,1,5.99
77.53651278839442,175.83773329769832,leningradskiy,-5.07,84,76,28.36
-35.2967481664825,-37.99565700812789,laguna,70.18,100,80,25.79
18.74203545953712,38.248361433250096,tawkar,78.64,100,0,9.8
-31.356394694215794,75.72882319238352,bambous virieux,72.16,100,8,9.57
-36.35201393772164,167.68751646288536,ahipara,68.11,100,12,19.53
55.17732910072945,123.15266319809905,takhtamygda,12.04,51,0,2.75
33.77409126118121,46.068371211047236,ilam,60.8,25,0,11.41
25.35322752420332,60.213249317808135,chabahar,77.56,96,0,3.53
58.20771431389048,-58.37569060924292,saint-augustin,28.24,100,0,9.8
9.530425861278829,-113.86612198234926,san patricio,79.99,100,0,10.47
57.44193265488164,-64.38966633737739,havre-saint-pierre,14.02,80,76,7.67
-5.920685169916382,-62.71083508463316,tapaua,75.49,90,20,2.53
18.33523567733907,-18.43470404466663,nouakchott,70.09,90,64,20.31
48.26066594210704,-88.69787872377844,thunder bay,15.8,72,90,9.17
40.04816331522039,-8.37432136712789,miranda do corvo,57.2,87,20,6.93
46.11119597859229,26.227349183894518,lemnia,46.4,100,90,2.24
75.00871683856576,-6.26023732274777,klaksvik,26.8,100,80,23.44
-6.109560953196322,15.179047444749841,mbanza-ngungu,79.81,74,12,6.67
59.76638905591787,39.008296911027685,kirillov,32.02,94,92,14.83
89.02732390818687,-72.84139788436016,qaanaaq,-8.49,82,64,22.1
-1.056103078149846,153.4287842099401,namatanai,84.67,100,80,11.48
41.37439282296194,70.28026225757108,angren,34.72,95,88,1.41
-20.56831768560258,46.92166276869324,ambatofinandrahana,80.98,45,0,7.78
49.75244938076156,145.8420975799603,poronaysk,28.24,90,76,7.9
-14.468138524373828,25.503151618853366,kaoma,75.67,83,8,17.07
-7.185715378368926,176.93876020573487,lolua,84.31,100,56,10.47
0.5659862756681378,176.78074035886436,rungata,82.78,98,24,11.25
8.015766640376555,133.1131572246715,meyungs,83.23,100,88,11.14
49.99564736005445,56.2221321907399,shubarkuduk,11.68,94,0,13.04
25.912780558300184,-69.07245937809279,cockburn town,75.76,93,12,21.54
18.61393697485937,2.377946097642024,kidal,88.9,26,0,4.43
-6.941479373053099,45.80771089094114,mitsamiouli,80.98,100,44,6.78
46.536215262825664,128.33533864971776,tieli,29.5,74,0,2.86
-48.10177600340685,157.88205755929528,tuatapere,52.36,100,68,17.18
53.036429511704114,-57.18912920167875,saint anthony,22.48,94,24,5.88
16.66015952956397,121.17939759818927,lamut,73.42,64,44,2.75
83.8291184888295,1.7050650180551088,barentsburg,-6.78,91,56,11.14
30.588956063642883,92.46556865117293,lasa,22.48,56,68,5.99
-43.60882128336029,23.74702610914818,plettenberg bay,59.29,91,92,17.74
16.924061111797897,88.67611231206564,paradwip,79.99,100,0,1.97
65.67995432776485,-53.26925703642412,maniitsoq,15.01,100,80,8.01
59.11639124109928,-115.84385064685715,high level,24.46,71,0,3.76
29.716289460187028,-103.2208901604478,ojinaga,36.25,50,0,4.65
-41.567112326052154,161.69264198120567,te anau,62.26,100,44,20.87
84.81007532159168,135.16412857007418,nizhneyansk,-27.12,43,12,6.78
-8.691752142159217,-36.44034503356548,sao bento do una,65.14,97,36,5.66
55.960158301672806,8.879439553785431,kibaek,36.32,93,80,11.41
14.179781434181493,-99.53636894679472,tecoanapa,82.51,100,8,4.21
-4.914911852202081,-38.88836615457831,quixada,72.61,96,76,2.64
10.072072329368837,70.78547823686853,kavaratti,83.77,100,20,10.02
11.55200168486553,-8.174517709824727,kangaba,82.24,58,76,6.22
-43.776649416139875,41.77708167707334,margate,51.46,93,0,15.95
-32.696737577422326,155.35011060795586,port macquarie,72.43,100,0,10.69
60.75289577279497,132.7620280928474,amga,-5.7,68,0,2.86
68.89842645475565,133.5470032867279,verkhoyansk,-24.15,71,20,2.64
59.73933304076587,-137.7071990314996,haines junction,21.31,91,68,0.96
64.27964169074065,116.69352613555355,nyurba,-3.72,51,36,5.55
33.29101460111467,-23.12422657482452,vila franca do campo,65.23,99,0,18.52
-23.24621676115683,21.040057567621886,manyana,85.03,33,0,15.95
42.141369626053745,16.891867425472043,vieste,56.32,100,64,1.41
17.08711988233287,64.66170413578322,porbandar,79.99,100,0,6.55
14.395957265112557,77.50555070098545,dharmavaram,94.93,27,0,12.48
69.29365578613016,80.54164173581046,tazovskiy,-1.56,81,64,5.99
32.71331091636843,24.638631409558286,tubruq,62.89,98,0,15.5
-5.249566192159108,-67.61799060013037,carauari,73.6,97,80,3.31
-50.10000132473814,175.66171455361103,dunedin,48.4,100,64,26.35
64.56800318836304,-142.0193279307216,fairbanks,17.6,67,20,2.42
5.820024450193287,16.732688270806932,bozoum,89.98,48,0,13.49
55.856276618076635,114.5657189563845,taksimo,2.86,47,44,2.75
-25.53217993309802,136.744086815804,alice springs,92.05,15,0,10.58
34.052850067213654,112.21718014196,luoyang,75.94,31,0,5.99
9.504662536523611,31.083688524186726,malakal,92.32,25,0,8.23
31.240482919109425,-86.6024123138354,crestview,38.61,80,1,3.36
87.33261620053096,18.249704283126107,longyearbyen,-10.02,89,68,29.04
-24.745246196530317,-50.363479541402256,tibagi,59.56,100,20,2.53
42.34655752034132,-6.533587146981176,ponferrada,38.68,98,88,2.42
33.795466699593504,131.11703640037877,kanda,58.21,76,20,1.12
-27.952736700280525,148.89965175787802,roma,78.19,43,0,6.89
-4.4438186497319805,95.77929973745904,padang,84.31,100,24,10.69
22.662231133141148,-89.2523344631868,dzilam gonzalez,73.24,100,8,17.85
-41.64201392513091,73.79395122853109,mahebourg,62.44,95,92,18.75
1.3824451483084204,-82.15765735891677,muisne,76.03,99,8,9.46
23.959299353997196,46.557320957233514,riyadh,79.72,22,0,9.8
25.855515629115388,23.23134199861198,jalu,84.94,21,0,5.32
29.09084594026318,79.61257090910789,haldwani,82.87,63,0,6.22
-17.45714070064585,-63.60171625429783,buena vista,75.2,100,75,13.87
72.60935558117993,26.026882913001515,honningsvag,28.06,100,36,21.21
-12.825216613505503,-149.21427637486448,fare,82.78,100,56,12.03
9.302367370295116,-84.6587204639165,parrita,78.28,100,76,2.86
2.635927373608169,115.68938795767332,sembakung,73.78,98,92,1.63
86.90387345650672,167.1212563835836,pevek,-15.51,71,56,12.26
67.95478463125977,-46.86216740537313,qasigiannguit,-2.19,67,48,10.25
33.83729851613961,-82.27969632971882,evans,30.16,92,1,3.36
52.11425672035645,-117.66963448264627,jasper,-2.64,57,0,1.41
-29.631414397605987,-25.601786741286332,vila velha,77.83,99,92,24.9
71.505264958825,29.20984697032469,berlevag,28.6,100,24,16.96
50.044522705284606,93.96967051697186,khovu-aksy,23.2,97,56,6.67
47.51546059130868,79.98787068476179,ayagoz,44.71,82,12,9.46
34.78572449717058,106.10203539602111,beidao,59.56,54,0,3.2
35.11238775196513,24.810921115925396,galia,66.2,59,20,17.22
32.27004996824782,-98.6711922009409,stephenville,42.8,80,90,3.36
56.92590563185831,57.66725971616478,achit,15.46,90,0,6.78
32.30826013595728,115.28471569383424,huangchuan,73.24,49,0,11.48
43.35019549874656,-95.64822869872575,worthington,21.69,79,1,9.17
50.28354565008658,36.0588109879325,zolochiv,26.6,73,0,15.66
16.217629007999093,-7.190432809921276,nara,84.22,17,0,14.5
-22.617845066558274,-58.39944385312822,puerto pinasco,80.26,80,20,7.67
0.14034725184993135,-41.262414707299286,luis correia,76.21,100,92,13.15
7.252029198968273,93.11294825258216,sabang,84.67,99,36,14.5
67.73560121709562,-132.99772427733427,inuvik,10.4,85,75,6.93
31.84252476940067,81.73670047827954,dharchula,25.0,50,12,13.04
73.7136267477403,24.207285803122602,havoysund,25.99,100,32,23.33
-25.404649005550795,141.94683095270062,mount isa,88.09,27,8,7.78
54.22521052312405,78.08206221030986,bagan,13.66,88,0,5.32
-21.812944487439353,-150.46941890766,moerai,81.52,99,12,11.48
-34.952366605880755,-157.37347890578718,avera,66.4,100,8,11.7
38.87834052025315,158.38304515043177,sentyabrskiy,45.61,100,12,10.58
15.05325277872791,35.991993033126704,kassala,93.49,23,0,6.67
45.44095640543941,-92.27359767638389,stillwater,23.47,67,1,8.05
-2.6074425377049693,-52.90759040789918,altamira,72.97,98,20,2.08
4.408580412991526,-64.67865130386038,puerto ayacucho,62.53,86,0,2.19
-49.342819605530096,-60.29344436366513,rawson,53.89,96,0,11.7
56.3517673757687,131.55846629824202,chagda,8.89,58,44,2.64
-32.62160704910786,27.691799469268176,stutterheim,80.6,65,0,12.75
-26.84761346348683,150.964225216108,dalby,72.52,68,12,15.84
71.83060301057179,-84.45871340272515,clyde river,-14.07,64,48,2.75
-21.690447313306166,-172.78603195995206,pangai,82.42,98,100,11.7
11.899269907166598,-103.80694957904319,ixtapa,80.26,100,32,4.21
41.13291077386904,91.6045863647754,hami,67.66,21,36,17.07
57.109879656568864,78.82239683856949,kedrovyy,7.18,86,0,6.67
12.399001196678427,-31.879133879060362,sao filipe,73.78,100,0,20.76
30.587903536344342,-129.76129053674185,pacific grove,61.72,99,32,15.28
57.20689734778372,2.3606300542967347,varhaug,41.56,100,64,16.84
63.30706579802387,38.982628883821036,mudyuga,27.61,85,92,4.99
-5.385670570672133,131.428981320623,tual,82.96,100,36,17.07
-23.218650471376193,-58.6081498572089,pozo colorado,81.79,72,0,8.01
49.61447211000842,41.58423188177946,veshenskaya,16.54,97,20,10.92
56.920882329708576,-75.62409748647045,chapais,11.86,87,88,3.31
10.596464432042652,107.76507966056352,phan thiet,83.59,75,12,14.38
51.34075781333138,83.71308764890489,charyshskoye,23.92,59,0,2.86
7.101108620635202,7.238449635783098,nsukka,85.12,71,0,11.03
-8.047368159420003,115.97743818658495,mataram,83.23,100,20,7.11
3.763318187515651,-6.861522563580877,tabou,79.81,100,80,7.45
51.92128502973068,-16.27696108865618,dingle,52.0,95,92,26.13
24.451920445958578,40.897296547292825,mecca,83.68,16,0,6.55
-13.395676525853517,123.68738213946375,kupang,83.95,100,48,6.89
56.34578828937103,19.397622672510096,donskoye,38.32,93,92,14.72
17.44823368052768,62.00681799158687,sur,77.47,100,0,2.64
23.11066953891185,79.22261336778251,narsimhapur,95.29,29,0,8.9
-9.502990415566742,106.17532980348415,palabuhanratu,84.04,100,0,4.76
-17.183004993726485,-40.57834524747386,itanhem,70.0,94,32,2.86
50.64429081313051,136.18145079437943,gornyy,19.6,80,68,2.42
16.438609859552813,80.57127040984409,mangalagiri,96.8,44,0,3.36
30.429402544425358,116.90821503523921,anqing,67.66,70,76,8.23
51.915456954834866,81.6064153191208,pospelikha,12.94,89,0,10.25
42.440133653990756,67.4026915334843,turkistan,50.92,79,92,9.01
42.196661476386595,53.796415648612026,zhanaozen,32.92,100,12,4.65
-9.746875393877602,126.9622065579889,atambua,79.9,100,88,4.99
50.17457026061885,-108.55657964445889,gull lake,19.4,62,1,8.05
-16.364182519936875,35.00673307919945,thyolo,77.74,87,92,5.55
27.088945411347524,76.96870527226332,mahwa,95.29,26,0,7.23
-24.561129796664105,19.34063204447881,aranos,90.16,27,8,14.83
-28.68605103072055,18.837355438670272,warmbad,81.79,43,0,3.98
59.880533370852646,31.271010122393903,naziya,35.6,100,90,6.71
8.57812187303449,127.2025087968043,barcelona,78.91,100,76,9.8
-28.93489261088105,155.7604023970792,byron bay,76.03,100,64,19.3
-35.644562423873275,-1.656029438937594,luderitz,69.01,99,92,12.26
-4.734782620561916,139.2329673254332,kiunga,71.44,100,92,1.63
32.46084212667819,-90.72439975747,vicksburg,39.72,100,20,3.42
35.84045410181072,46.70560325601244,saqqez,53.89,30,0,6.44
37.34684424773327,94.04637781491095,yumen,57.31,7,0,6.22
-13.853615798642267,-174.16435940391153,falealupo,85.84,96,56,15.84
24.34768349821762,111.70717952832695,babu,70.45,67,92,4.43
-30.396925447149506,145.5498272062925,dubbo,81.34,23,68,4.99
58.53002286399504,87.80344100959923,teguldet,6.28,57,0,4.43
49.559802079644584,-127.58147180021969,port hardy,52.45,80,64,15.61
42.42321783063542,127.35911844415642,songjianghe,47.95,79,88,8.46
54.60733535460514,-92.55937138243394,sioux lookout,6.19,73,56,8.46
63.346530133394396,66.66704634269783,oktyabrskoye,20.95,72,64,8.79
-3.855918027993823,-86.84991854062554,san cristobal,79.45,100,56,10.8
62.43728997912132,58.5747108954061,vuktyl,16.9,73,88,7.67
38.113345794763035,17.455721514544194,crotone,59.02,97,0,20.09
63.97533202339014,-59.47884723522314,sisimiut,8.53,88,56,7.0
13.757668522561744,-0.9704806624450555,kaya,95.02,13,8,6.22
-9.818289812562995,161.25986407884278,kirakira,83.68,93,76,6.89
-3.4589588795809334,-67.62276312798208,santo antonio do ica,74.77,92,56,2.75
4.668601380082336,20.959603373703942,gbadolite,88.54,58,68,5.66
13.55804695277304,-102.55087537462288,tecpan,80.98,100,8,5.55
11.320158670791486,39.707268722447736,dese,75.31,35,0,2.75
32.585291030954295,-16.700217817414824,machico,65.19,72,20,5.82
45.0514511747098,4.106597140071273,firminy,50.0,81,0,8.05
16.034568703423034,0.012754951107496026,gao,89.98,15,0,4.88
-26.635951310914095,-87.22789742825066,coquimbo,70.54,100,48,15.5
-21.36231359875157,-40.45324017732514,marataizes,80.08,99,0,5.1
43.475306896327425,20.55748027399045,baljevac,57.2,62,40,1.12
37.16423576796663,139.25294025368953,muika,40.12,69,0,1.86
-32.876157348732995,-82.35494533782257,lebu,65.14,100,24,12.82
-29.854067130672078,142.39733644577416,broken hill,78.82,18,0,11.14
38.736414823312714,89.70015536041996,korla,53.98,57,56,3.42
-15.660737832274549,25.920290795798735,namwala,78.82,62,0,15.84
53.64122987344467,-30.089833056829065,grindavik,41.83,100,76,20.98
29.46019210274784,28.71416355530468,alexandria,79.81,22,0,6.44
26.90817323637728,70.6607225503598,jaisalmer,89.17,35,0,12.03
-17.158043087859937,-56.20016708530326,barao de melgaco,77.02,82,24,4.76
42.296597851413935,48.42955179432974,derbent,36.79,100,92,9.01
52.48547907116378,-80.15666089165502,moose factory,12.85,85,48,11.14
36.0626367348092,-151.50446421905582,ahuimanu,55.42,100,92,22.55
-6.906244807889465,-32.389088758669686,cabedelo,82.15,100,12,12.03
65.86183420910868,47.48034642436534,leshukonskoye,29.14,83,92,3.87
-1.1722797356750476,-58.87507820300536,urucara,75.4,94,68,2.64
-8.21333968533503,38.75005052628427,utete,78.46,100,92,5.44
43.378827816025506,74.7581094158094,georgiyevka,45.34,89,36,6.67
64.06742115931314,43.02152456318663,pinega,24.73,82,92,6.11
-7.432946104750087,-37.42951672342406,imaculada,61.99,91,12,2.53
22.305668016701034,77.33374958975867,seoni malwa,96.82,23,0,7.34
50.96814712449941,9.274392939904857,schwalmstadt,46.4,81,75,11.41
21.285701833512107,-87.48217039263581,kantunilkin,71.8,94,64,3.98
56.19587674063354,2.1388690249323474,bridlington,41.83,100,36,17.18
-10.480617530113918,108.59153216399278,kroya,85.3,100,36,4.76
48.76100830418335,-83.89818081984265,hearst,16.36,75,76,9.24
39.813519650753506,-101.2280055066645,north platte,29.5,58,75,5.82
30.282842775995476,97.190523702772,tezu,30.31,73,24,1.86
-34.7698515551886,-62.79645100828468,lincoln,57.94,33,0,12.48
10.996256883269055,-60.29686723006452,scarborough,77.0,73,20,13.87
63.14276335126877,139.68404013660853,solnechnyy,-17.85,63,24,2.42
34.50607201690306,113.79733172924398,yuzhou,75.2,41,0,11.18
53.025300838590226,-101.15031511498908,the pas,14.74,75,0,5.77
59.35724809020141,165.77933029064963,tilichiki,7.45,100,12,19.08
9.927617370950273,15.57792996300364,bongor,93.4,25,0,2.3
43.96294522005849,-113.36966823964387,hailey,-0.12,52,0,2.98
-2.372693264407488,-3.8290638822435312,axim,80.71,100,44,10.58
53.229291908503285,-0.8114376051706529,east retford,43.45,75,75,8.05
-23.278987207038014,145.87528507087603,emerald,83.23,33,0,9.35
-38.284310433722275,-59.65588960419831,tres arroyos,55.42,58,0,9.35
61.068339361183234,-8.989121916001835,sorvag,42.64,100,92,26.57
-22.463395886950465,-47.53904128518607,santa gertrudes,69.8,94,20,2.24
69.50123866764235,22.143729836592144,oksfjord,21.2,67,75,11.41
23.68273802073655,36.457452063361046,umm lajj,76.39,100,0,13.27
15.346499705494764,19.244057372331895,biltine,92.95,10,0,12.15
65.71620645516802,81.52550303591613,krasnoselkup,7.9,83,56,9.91
-13.791413538666887,47.19416753160937,ambanja,84.49,99,24,15.84
67.17690579542835,149.85578855383085,zyryanka,-27.39,43,0,2.75
58.78694954363178,-2.95842257888836,kirkwall,41.85,70,40,3.36
0.8942974934532373,64.9859812636279,thinadhoo,83.32,100,0,10.25
44.851273046702744,-73.06287507431875,saint albans,30.16,100,90,3.36
57.156073630449754,-111.84505460918727,athabasca,32.0,84,90,8.05
-5.730902690731753,3.1598306351663155,omboue,79.72,100,32,7.67
54.42911872598009,13.683527681586185,bergen,44.6,100,90,12.75
-25.629993279051206,131.48294169548183,yulara,86.92,20,0,13.27
48.79324403472745,161.8490170942341,petropavlovsk-kamchatskiy,31.84,100,76,24.9
-1.3263336161751198,3.525708216826928,port-gentil,81.61,100,80,9.46
50.12542528953293,-116.40314526891032,invermere,7.18,56,0,1.63
32.466903317469786,-14.6103684575653,porto santo,63.7,99,0,7.67
20.147352106252384,-53.70363466632699,saint-francois,75.49,100,92,12.93
15.736447059054328,85.73097726550162,yarada,79.9,100,0,2.08
48.72527559443637,50.466580501051425,inderborskiy,16.45,100,0,8.12
0.3357748934352287,50.45285724098639,mogadishu,79.81,100,8,6.44
15.643531377318013,70.21021189159015,malwan,83.14,100,0,8.68
55.833585650229026,162.34856762777162,ust-kamchatsk,21.22,100,0,5.21
47.50346337231829,58.39160925669998,emba,20.86,92,20,11.48
17.27519500760846,90.40970168432705,akyab,79.54,100,0,2.98
47.212022479381886,71.98849538840471,atasu,37.24,86,80,15.5
-3.5163614036670197,8.358881691612709,gamba,82.42,100,80,6.22
2.5137262961377473,123.55207100905182,manado,81.07,100,0,6.11
13.502554661253797,7.733648644027795,aguie,91.06,23,0,10.47
34.212871643758376,-98.4387339763563,burkburnett,36.03,64,1,6.93
32.95460431584243,-114.99271507594379,algodones,66.2,52,1,4.21
9.77925218668949,11.008335923054545,pindiga,89.62,43,0,5.99
24.037477984572746,117.8130255253136,shima,69.8,64,0,8.95
75.13799799619744,39.79836768050009,ostrovnoy,17.44,100,48,18.52
56.46648249265917,22.632118761677276,saldus,46.51,98,92,14.83
32.08862586432673,96.39075195061508,pasighat,31.48,47,76,2.64
50.74480550576672,-67.50225798197168,port-cartier,11.86,77,56,2.64
71.00769587376462,173.59764400244165,komsomolskiy,-13.8,85,24,19.86
6.51694463336257,117.37514331123776,kudat,80.62,100,36,7.45
-1.882460920959943,20.196985579959062,boende,86.02,76,0,2.98
44.7308998302324,15.42263556107423,gospic,44.71,94,68,2.98
42.43939994281027,-87.30674331383909,zion,27.1,68,1,5.82
62.65035576906328,166.22966561223114,kamenskoye,-22.35,64,0,3.31
10.94669525936824,55.52899787988602,bargal,78.1,100,48,5.44
33.09009152907409,-15.428154836670132,camacha,63.61,99,12,12.26
43.73690459842126,38.89032236402386,shepsi,54.7,81,12,8.01
49.65389773919131,5.786973748175427,arlon,42.8,87,75,20.8
31.033357729586925,111.91441834052245,qixingtai,68.56,68,44,10.47
50.67487247079015,50.38398053903481,ozinki,14.11,100,0,5.21
-30.396948707409784,23.2619496184754,de aar,88.99,16,0,8.46
64.29212850639658,16.34252172248125,ostersund,20.86,85,48,3.42
30.176087054930875,79.7524444579301,bageshwar,60.46,61,8,2.19
72.26560197724635,68.51701324454964,aksarka,-8.94,100,20,9.69
52.79828501022959,83.52478678222838,nagornyy,17.6,40,0,8.95
-1.1659761445182966,90.79648238198803,meulaboh,85.84,100,8,11.25
37.991371048366915,61.16718623469038,murgab,51.01,100,76,13.27
8.438442491936271,104.30981763808961,ca mau,81.25,100,12,14.38
-13.807332734248163,39.819440913236036,montepuez,82.24,91,12,9.46
-18.401054821230375,123.4990600667274,broome,98.08,20,0,10.13
12.488872045762434,-23.32210801580328,praia,74.95,97,0,18.52
-5.47967330848725,-35.585039229911445,taipu,77.0,94,40,5.77
-28.05654879248862,-58.90760824437541,san lorenzo,69.73,60,0,9.01
59.316319700762875,126.15641409722355,tommot,6.91,52,48,6.11
14.398165100314657,149.915265882484,lorengau,82.42,98,80,16.4
-20.057046137843685,-36.66238819632994,conceicao da barra,80.71,100,0,4.88
55.90432755317596,79.93609424683069,ubinskoye,5.74,84,0,4.43
45.33153078557831,30.254603932094767,sulina,43.18,91,80,20.98
49.31302512409928,12.057466782255972,schwandorf,44.6,81,90,6.93
-29.888833490903117,-60.451736849932416,reconquista,69.37,79,48,10.02
-38.83151526421097,-53.33251640748176,maldonado,68.47,100,76,20.76
4.7233305681370155,-75.41503786047073,salento,51.19,80,44,1.86
33.19102183515044,25.458788316802668,bardiyah,63.07,97,0,16.51
49.032778140589926,103.37224979638523,bulgan,17.8,66,92,8.57
13.637565664426745,-67.75355038973493,rincon,80.26,97,0,26.57
19.84724875228416,-61.65271183283269,the valley,77.92,98,44,14.72
58.338168875918086,125.66418585538736,lebedinyy,2.59,60,56,5.32
67.20926464612995,-26.387166571074744,bolungarvik,24.46,100,80,38.43
22.20868697992921,-22.51521049356208,nouadhibou,67.48,100,0,20.54
35.864864350378525,-69.46197135639962,nantucket,62.71,100,92,49.17
10.70830117782559,42.7727048236454,borama,85.39,39,0,6.67
31.435421124796463,61.063397537210676,zabol,82.4,20,20,9.17
-2.5465434460281955,-27.40817663322798,natal,81.61,100,88,14.83
23.494744177604375,75.738614360378,gogapur,94.57,24,0,10.58
15.659009675123116,27.42016954242399,umm kaddadah,83.5,14,0,10.25
31.003458129306225,-78.82277768676377,mount pleasant,58.39,100,20,29.37
39.80032034052263,68.3915825074819,zomin,36.61,100,92,1.74
33.04478484607688,153.59812497608527,nemuro,56.86,100,0,16.28
-2.797006607614435,15.678999490842159,bolobo,80.71,86,8,4.21
60.71208731740916,92.90258509950581,severo-yeniseyskiy,3.13,55,48,5.21
-33.92337076854146,149.92552276830622,lithgow,61.09,87,76,3.09
6.978333638235554,-103.65014575844137,acapulco,79.45,100,56,8.68
15.346676144985338,12.833265084565625,diffa,90.79,15,0,10.02
-2.7472218769300127,-43.82816764724777,icatu,77.0,94,40,3.36
53.188716284442904,-106.81241033094945,shellbrook,2.32,55,0,4.99
-1.6836629064918185,31.198036824739972,nyakahanga,74.23,87,24,3.31
-4.313108425652089,-36.23221944733962,macau,82.24,100,92,12.82
-6.820043085276637,34.4396812852236,mafinga,74.05,76,80,4.43
-31.999530411933257,116.13615923830145,perth,98.62,22,0,12.75
-11.787143489134834,-45.1981683677723,riachao das neves,67.93,99,92,3.42
-22.542701966578406,144.06860448736973,charters towers,84.22,32,0,8.01
30.456599588377472,38.44958899201234,turayf,71.71,52,0,5.44
38.505028627153536,-64.45987579106189,shelburne,64.78,100,92,36.08
18.466329904460167,-100.5458083535659,cutzamala,66.22,77,0,1.74
58.00660078769113,-21.24074021811569,vestmannaeyjar,45.34,100,92,14.5
-6.878919278703179,157.19579309993918,gizo,82.78,100,48,4.54
-5.4902512532212455,86.21575249996539,hambantota,85.12,99,36,17.52
-10.229271232386253,121.50338566764958,waingapu,84.67,100,24,5.77
21.994357657761967,91.75200309783742,patiya,86.0,66,20,6.93
47.031306087893995,-21.293490053298257,praia da vitoria,54.43,100,80,24.34
-0.9603891397515412,78.31372857061439,viligili,83.59,100,64,11.03
33.850533277119865,-83.34865527683235,monroe,35.28,80,1,6.55
14.876291675035233,-11.68613729797724,kayes,86.2,17,0,14.5
72.14270397750292,44.767205344854744,kamenka,23.11,100,48,15.61
47.57387453777048,1.9927785900019046,olivet,48.2,81,92,11.41
-23.912973698315213,163.3095059122531,poya,77.56,100,92,32.84
42.26254995568357,51.46458689875155,kuryk,33.73,100,0,7.67
41.46402353124029,144.4859132339247,kushiro,42.64,92,48,15.84
-43.186375231379735,-61.013705122150455,viedma,64.15,97,12,26.69
69.94455560592283,138.6329200729749,deputatskiy,-31.08,52,32,3.09
-12.239042159493707,11.748105629398253,benguela,79.18,100,20,9.69
21.761451264310708,-71.5409641121267,cockburn harbour,76.21,100,0,2.98
28.561630353570365,-89.0761561309713,chalmette,61.72,100,12,16.73
49.60598732220876,150.56846757122247,vostok,30.58,100,88,24.0
-21.61247815181804,-42.54769693293733,recreio,66.04,89,12,2.75
68.11405348396394,16.433451670144024,kjopsvik,24.8,53,0,3.36
17.392231590128404,108.12011110230276,hue,74.41,99,24,12.15
-23.186681248902943,-65.22134231339354,libertador general san martin,31.39,71,0,2.42
2.142550551449375,-44.06562215490115,carutapera,80.17,99,32,24.11
-8.818192199184423,-62.54848928943538,ariquemes,76.66,95,80,2.19
28.250251347385685,-113.22456444401527,santa isabel,51.19,78,0,2.64
14.925377824269262,89.17593653306255,port blair,80.35,100,0,7.78
32.22598133106395,-114.94693337287539,estacion coahuila,66.2,52,1,2.98
34.77907904754613,28.269855692914746,karpathos,62.89,94,8,16.73
46.984795391826395,-128.0932882491593,ucluelet,50.38,89,92,24.56
34.74282166150256,115.30394710969625,dingtao,75.31,56,0,11.03
33.55084981030558,35.5918975781355,jazzin,64.08,68,40,5.82
56.67929196745385,97.74272284059504,pokanayevka,11.14,58,8,5.44
38.21651768913739,-6.264724075755453,zafra,53.62,95,64,8.46
-20.386023277058356,-77.83067023785686,marcona,69.37,100,92,14.61
-30.9117480230352,158.26821635929656,ballina,73.33,100,0,7.78
-28.97604662647742,-64.03754080543037,santiago del estero,72.7,75,56,5.77
57.77391048475462,6.381341809250898,vestbygda,64.4,82,75,11.41
27.634746376114137,120.64035592115425,kunyang,63.61,71,0,4.88
0.8379432050362681,4.011683567732689,yenagoa,82.24,100,76,6.67
48.56733408002381,60.71130445677136,svetlyy,18.52,93,88,18.75
71.35967556313369,83.36037780127367,karaul,-6.78,89,76,17.29
61.65163961561879,-27.127210620288224,olafsvik,40.75,100,92,32.28
-3.701957323977595,26.75317316822887,kampene,88.54,48,0,2.19
41.98366759491498,113.69694083223203,jining,65.05,17,20,14.27
17.886700225524407,-127.01311439882844,guerrero negro,73.06,100,76,17.29
62.08128494030203,77.93051911347698,novoagansk,13.03,66,56,8.68
39.52477996934138,42.674860073256895,patnos,51.82,46,40,17.22
-26.596435284450557,34.09910232450517,xai-xai,79.18,100,92,12.82
2.1648689630631566,-80.91746991592986,esmeraldas,77.02,98,44,6.78
70.67227853205804,135.76617195731149,ust-kuyga,-33.69,61,36,3.2
55.60618633190407,161.31931230312125,klyuchi,0.88,88,0,2.19
64.31832097606733,-12.565059820736934,hofn,39.94,100,88,34.63
10.51592431105803,5.65927649395303,kontagora,89.08,56,0,7.0
47.69928722061806,-52.98308307426812,wabana,32.0,91,90,13.87
25.865905872539344,90.4787598848526,goalpara,76.75,66,8,1.07
9.643230000395292,-164.65635255364396,makakilo city,80.44,100,92,17.4
-8.102187347998822,-85.4516750392607,sechura,77.2,100,92,13.04
19.019531635911335,45.36706477994434,najran,84.31,29,0,8.46
63.84558108097846,19.244719586836936,ornskoldsvik,27.5,86,90,14.99
59.53088789007418,160.41392641808187,palana,1.51,100,32,8.23
62.91811168176153,75.15885509758922,noyabrsk,10.96,85,80,14.94
61.02772970962937,-114.76736858326565,hay river,30.2,74,20,2.24
-34.30072329923663,-65.79751712296145,mercedes,57.31,20,0,14.83
38.4672049378151,37.6592868851896,elbistan,60.8,44,40,4.7
11.886885963534624,78.37637356146769,mallapuram,85.39,64,32,6.67
4.29739281459409,105.86975736331527,kerteh,80.71,100,20,12.37
-2.862989522522483,39.858315430710434,malindi,82.4,74,75,9.17
50.25293202808896,-4.548690934329812,saint austell,45.68,75,20,8.05
44.45399094427316,59.36174308253075,karauzyak,24.28,100,20,17.96
-20.946270130030072,117.39875100113557,roebourne,100.87,23,32,12.03
-19.643334200560858,160.7810502759002,poum,79.81,100,92,35.86
46.985433406627635,36.47432364571853,osypenko,35.62,86,20,21.88
-6.839729403746546,33.46972599936902,mgandu,75.13,76,64,4.54
38.692853356110305,23.515296960614023,prokopion,68.0,42,20,9.17
22.179804699755422,134.10095764390297,gushikawa,72.88,100,88,20.76
6.313801920036383,11.328968782966228,banyo,75.85,99,12,3.53
-41.3139360155183,174.33850042038472,seddon,60.8,87,0,8.05
61.94178160228091,3.5175422456491106,floro,39.58,100,0,32.17
11.173232044055013,106.28708088531374,tay ninh,87.8,55,40,10.29
-17.89271326950707,-48.52250897752742,caldas novas,66.76,87,0,2.53
41.21585248200674,27.855521826081855,corlu,60.8,82,40,19.46
56.79330403829704,48.12272294963918,orshanka,14.29,84,32,12.71
64.9352956819557,2.677488674213606,raudeberg,37.4,59,20,21.92
53.05996082730644,-70.51960506648179,hauterive,20.32,82,80,8.23
40.84887211198449,115.74553220448337,xuanhua,64.6,24,0,4.88
-2.5227004470872316,116.41495918370669,barabai,86.92,77,0,2.42
16.367623392129047,39.982769524118254,ginda,79.54,100,0,7.11
0.34773565953058494,131.5110428593776,sorong,80.8,100,32,5.32
57.17749534332722,106.33248687578617,ust-kut,8.26,49,48,6.11
-1.818726168144181,118.77119208800707,palu,82.96,100,56,1.97
64.07482952005509,136.38547902092608,khandyga,-18.21,48,0,1.97
61.94062044631852,142.03723497365132,okhotsk,-25.95,66,0,1.63
27.163837127367557,-84.60689799542585,seminole,63.88,100,12,19.86
39.24844703555837,19.318119371771928,liapades,60.8,82,40,10.29
-8.29135853077193,-76.32904151574009,uchiza,66.67,97,36,1.86
21.769609301519665,-92.9423395081729,celestun,74.05,100,80,19.08
-19.585329866104743,166.27453995260237,fayaoue,82.6,97,64,23.89
64.99998834601328,20.099106467913515,skelleftea,23.0,85,75,9.17
14.59793334991997,-6.156787739049122,sokolo,86.56,20,8,10.13
-36.0155475076579,38.23067776240762,port shepstone,67.75,100,36,15.05
-17.210566392637986,137.0564319135355,ngukurr,85.12,42,0,10.69
12.295044040663342,-80.75295136664235,san andres,79.54,98,88,12.71
18.979863663815465,71.00866396355693,diu,81.07,96,0,16.17
11.520350570174585,-85.33831459836455,san miguelito,78.82,100,8,13.6
-4.33791998980675,103.13059639952951,lahat,72.07,91,92,2.19
59.082139614523896,77.81532752792975,strezhevoy,15.28,55,12,8.34
36.71256588026223,83.55201658661969,kuche,30.4,95,8,3.65
45.95198278931329,21.67437628728493,brestovat,52.68,81,40,11.41
46.828140193424616,147.3088846911258,kurilsk,31.39,93,92,24.11
34.8026932162458,124.50680505335362,yatou,49.03,86,0,17.52
-14.704009009114884,111.82836159860443,gondanglegi,80.35,100,76,16.06
56.535392899140646,156.78005708974848,esso,16.63,81,76,5.21
62.0603596327517,121.02858635732565,verkhnevilyuysk,0.97,60,64,7.23
22.425466018567505,94.66072359290979,monywa,87.1,49,0,3.2
50.84630284622111,-76.83142987072064,matagami,19.06,90,88,3.42
20.723863129884435,89.76986923918889,sarankhola,82.06,95,0,11.48
52.69363772544676,69.61620733221844,makinsk,14.0,66,0,13.42
-15.09036032185979,-40.733139907833305,itambe,68.11,99,68,4.21
9.283765091482351,27.097777745144782,uwayl,86.02,48,0,7.45
25.445469140777192,0.8447515365653828,adrar,83.14,14,0,3.42
63.24325486360891,78.71057238879393,tarko-sale,9.34,84,80,15.73
-21.85944229538825,29.250560172294797,kobojango,76.84,69,44,14.72
3.2750886040100795,-70.16551347303624,cumaribo,77.65,73,8,1.97
20.626170548414223,-67.02819925174236,isabela,78.64,96,0,11.03
39.6124667773982,51.84785909954556,gurgan,43.81,100,80,7.23
14.93082462140734,124.86089705428822,pandan,80.98,100,92,14.05
48.258835856722584,65.38914956987577,zhezkazgan,34.18,100,92,5.88
10.776825333535982,-106.65058736538694,lazaro cardenas,79.54,100,24,4.43
-35.54461361685235,156.73145119873794,nelson bay,69.19,100,68,9.35
4.873295328059882,-4.957607703646914,grand-lahou,75.04,100,92,7.23
87.13130785216748,-39.62843103418595,ilulissat,-22.89,68,12,18.3
31.645950386021127,36.56543236772393,jawa,63.54,34,0,6.93
20.086514598348785,117.51421972571524,jiazi,76.3,98,12,18.3
11.91098200721045,-93.15258659498737,champerico,83.41,100,0,7.23
-19.577045037177342,11.91281686309398,opuwo,69.28,99,0,19.53
54.73972790579572,72.09920334518404,sherbakul,12.76,91,8,4.88
18.383816625994,24.384889297494766,kutum,82.6,16,0,8.01
35.703286125185045,29.168969093322858,fethiye,60.91,100,92,18.3
80.82133286961522,27.19562360648527,mehamn,19.51,100,48,8.68
-18.366269364025314,-176.01311381358207,neiafu,83.86,96,0,13.38
71.81557190833303,92.88534722756282,talnakh,-21.45,63,56,7.56
30.952421963449353,-103.28722517202219,pecos,45.64,36,40,9.17
-9.768327916542802,135.10415912227847,galiwinku,80.17,100,88,5.1
0.6326280518854475,-43.240235728175236,cururupu,81.16,100,68,21.54
3.7018364090965292,133.14040750728753,kloulklubed,84.76,100,0,12.26
46.958063952464244,74.79556163869842,balkhash,36.79,89,44,13.6
23.441460752758857,-96.25898044413506,nuevo progreso,70.72,100,36,10.47
-26.41348548266057,-45.64543856155501,guaruja,76.48,100,0,6.67
-8.948532380841456,-61.258005428559954,aripuana,74.86,97,56,1.97
-48.156262153546066,-67.76418135903496,comodoro rivadavia,42.91,47,32,11.25
-19.16367741583025,18.80377412957401,grootfontein,86.02,44,0,12.15
31.731547707509733,95.2672913168168,along,23.38,65,48,3.2
67.67443087593657,123.88654218547623,zhigansk,-11.91,58,44,3.65
-1.7652788647464064,113.672313315915,sampit,84.49,77,68,3.98
-4.694124974817925,83.36400402660593,matara,85.48,97,68,15.39
0.9793939759242676,20.594010964294824,bongandanga,88.09,66,12,3.2
-2.7817873834814435,47.7741214553422,barawe,80.62,100,36,7.45
31.246227870375208,-10.252933588748874,agadir,60.8,87,12,5.82
63.31479546215081,92.5908489188991,teya,-9.75,67,68,14.5
3.6218585747178764,-52.60345838879981,camopi,74.41,90,100,3.2
-1.7628578266816959,135.31405828340098,biak,83.14,100,48,6.22
-15.875603365232095,129.1414316348684,kununurra,89.6,46,88,5.82
13.056870199825724,-84.36352569689282,siuna,74.77,91,68,4.54
7.561790577942759,48.50535819899497,garowe,86.2,49,0,6.55
54.49130760266317,102.77473126450303,ust-uda,9.7,53,48,6.22
41.20979976236151,73.10046720335748,ozgon,39.94,90,76,1.86
-7.280117394118491,111.72798302836298,cepu,78.28,97,76,5.77
-31.525723652283865,-74.78330461324454,valparaiso,63.88,100,0,27.92
-3.9359706696718604,45.07000589025694,bur gabo,81.16,100,44,2.98
60.255503717299035,17.16545736297499,gavle,32.92,96,92,10.25
52.414270450977256,128.33445239232577,shimanovsk,22.48,46,0,5.32
54.643203134108745,-114.23278185505765,barrhead,10.78,62,8,3.65
7.416541884740241,113.26157120177766,labuan,80.44,100,56,16.73
40.65701925633613,-103.71553813899908,fort morgan,25.25,62,40,10.29
28.299066362280456,67.71195254782336,usta muhammad,86.47,61,0,5.21
-33.11220913098049,42.009389205755014,beloha,70.99,100,92,17.63
44.346642612402576,141.26753963347687,rumoi,42.01,95,92,20.98
65.15597230689795,13.839697470371476,trofors,10.78,78,12,0.96
6.597297694879742,-101.34701534767757,puerto escondido,79.72,99,8,9.69
-16.6572775297213,-45.67239951515805,arinos,69.37,94,8,5.88
72.83257343290501,154.77433731557431,srednekolymsk,-10.65,73,56,2.42
22.722677939085486,83.13430628114025,pathalgaon,92.23,19,0,11.14
57.495390043294094,15.731745401152779,vetlanda,34.09,100,92,6.67
53.55743081872629,122.27043848681933,yerofey pavlovich,19.42,51,32,2.53
-4.551769570814457,39.91074721812731,micheweni,77.0,88,90,13.04
43.8793809812577,-83.57233922577356,bay city,27.14,92,90,5.82
53.05284127963719,45.647857122331345,sursk,11.32,96,0,8.46
8.953733615584383,6.378339149191788,bida,86.02,74,0,5.77
-44.629944107815255,-73.44136486808486,coihaique,49.93,100,92,16.06
-17.301691916023316,152.34052160777264,bowen,82.42,100,56,20.2
30.862498332266696,-12.444219095919067,teguise,63.34,99,0,9.35
-35.64554828079865,178.08307934443104,ruatoria,71.08,100,56,23.89
5.833648025945152,-64.76648058337193,ciudad bolivar,64.78,88,0,2.19
-31.844820247912978,139.5248430733041,port augusta,72.61,35,0,13.49
-11.324731951353911,26.183331994837886,kambove,67.39,95,92,5.77
16.96439193325743,120.1317162343014,nalvo,80.98,100,0,9.46
44.610169459546825,80.01999206867941,zharkent,37.24,93,88,3.98
-3.6175143683099833,-0.2230541172226026,takoradi,79.9,100,48,8.46
9.676690096690677,17.106840879015607,goundi,95.38,32,64,8.79
40.81972937739994,143.07287082666556,hachinohe,45.88,89,76,14.72
46.60923625240821,64.148825989948,dzhusaly,30.13,97,76,11.14
56.84365297363087,123.03961385971206,neryungri,5.02,61,44,8.68
-11.138232441705227,-77.22010589972692,sayan,64.51,88,20,2.08
15.355607479797541,-162.24085380726225,nanakuli,75.22,100,92,23.67
31.566728429920786,4.28782699493533,warqla,60.46,66,0,8.34
39.85438535247354,33.38629087535861,elmadag,57.2,50,75,4.7
49.991864439890065,-104.07326200520528,weyburn,8.6,84,5,12.75
3.699337873644282,105.64121510381483,mersing,80.71,100,12,12.82
-14.311415053378497,56.50347109794208,cap malheureux,80.8,100,76,30.38
-42.805100765926014,169.53622193489878,hokitika,61.81,100,32,25.34
-29.628585530632236,18.526977272217408,springbok,77.0,36,20,4.7
-13.773663996192596,17.59396884371472,menongue,76.48,67,8,5.44
31.640053245200093,42.60628754003332,hit,83.5,19,0,7.0
40.36278862554215,61.319357433615096,gazojak,43.72,100,24,12.26
45.81784399405976,-7.099357721304045,cervo,51.19,100,32,13.71
19.29933042349316,118.86872439922553,davila,77.02,98,0,21.09
34.61176577454076,-129.3226965090345,half moon bay,57.49,97,68,27.47
31.154072914559023,19.17710181170696,ajdabiya,63.88,97,0,10.02
-22.45426411768331,28.79475675489894,mathathane,79.81,57,80,13.82
47.40501394561974,-115.35925683629645,polson,30.2,54,1,11.41
