Lat,Long,City,Temperature,Humidity,Clouds,Wind Speed
-39.74971767630991,-2.5595786488447914,saldanha,61.0,100,76,18.3
42.27648621030812,-65.46588689637548,shelburne,45.61,98,92,46.26
-83.83746791841035,-174.1889892886632,vaini,6.01,65,44,13.04
-8.660537499987555,-32.56504701063534,olinda,81.88,100,44,11.14
2.0554726447907257,127.9335340656366,ternate,82.6,90,88,7.78
70.22275125212869,103.46039157236015,khatanga,-15.87,68,20,3.2
-36.8011821876874,-140.82229104081242,rikitea,64.87,100,36,14.72
-80.50008370858735,173.65436942239688,bluff,-18.93,54,24,4.32
-88.20068015202914,81.18585755917178,busselton,-53.94,0,0,9.35
10.174529051316682,-106.08943346953171,lazaro cardenas,79.81,100,12,4.32
56.34375841416005,-80.44918986018212,attawapiskat,11.68,84,68,3.2
70.55305675113644,82.34580288515951,karaul,-4.53,80,48,11.92
14.207891789432963,-23.30483077775301,praia,73.51,97,32,20.76
47.69611966289963,-145.79155541569023,kodiak,41.02,100,68,15.05
-80.44350489973141,-158.06842022729745,mataura,-21.99,32,0,8.79
-18.898648652915128,-53.77173700337592,camapua,72.88,95,12,3.2
-45.39951514964654,-45.44272545315701,rocha,55.06,100,56,13.82
-36.83198195765363,131.77628498728484,port lincoln,63.34,100,92,9.91
-68.86731741536533,-82.84924241180074,punta arenas,31.57,100,88,13.04
-75.7556594557528,-70.8633943393009,ushuaia,-4.35,68,44,5.44
7.001458769511288,99.44609248108378,kantang,93.2,46,40,10.29
25.198739968225766,-155.98803718906152,kailua,68.99,100,80,15.9
-15.90736927704711,-43.85833478214579,sao joao da ponte,68.92,100,92,4.99
-19.44679918328707,51.143754004526585,andevoranto,81.79,100,36,10.92
-60.59101988871178,47.33339244931847,east london,34.54,98,92,19.53
-54.25431617193844,78.26597690630285,mahebourg,39.04,95,92,25.34
-77.10532260515053,116.36627374359432,albany,-65.73,0,0,4.99
43.858709789285626,23.705895489563034,macesu de jos,50.0,93,75,12.75
-6.06624846424063,-108.9207693553787,puerto ayora,77.29,100,88,16.06
34.293321252877774,6.572395065660203,tuggurt,60.82,71,0,7.23
-40.74894162143523,154.15822237912414,batemans bay,65.86,99,12,18.3
-32.16714376613822,-86.89831513032513,lebu,68.47,100,44,11.25
-15.960041121980623,76.42720590330043,hithadhoo,77.47,100,88,28.14
84.37993702316618,-26.35739835137548,illoqqortoormiut,-28.29,46,0,0.74
6.981830084261333,107.27000518540189,bac lieu,80.26,97,68,16.28
51.98327581348519,-2.678317013647103,hereford,41.81,93,75,2.24
-55.65375350230656,63.1741355245282,taolanaro,37.96,100,64,39.1
-88.3844795841375,4.140604809848298,hermanus,-52.86,0,0,22.32
-51.46489797242392,3.806567304334976,cape town,35.98,100,92,27.92
-36.6740248257842,149.45459426463378,cooma,59.56,77,76,2.75
61.49536831570509,-50.92948864587129,paamiut,28.06,100,20,19.86
43.78696385284215,-75.91069659859015,watertown,30.2,100,90,6.44
10.635452315263706,-25.199165125140212,sao filipe,75.22,100,0,16.51
69.1495525409324,-102.21131954723013,yellowknife,-25.5,79,12,10.25
-31.892982415159658,31.73703231220796,margate,73.78,100,0,16.06
-0.8553572052476852,100.75390693035308,solok,75.31,89,80,2.98
-65.68427821845941,150.93982259436348,hobart,24.55,96,76,16.62
-28.63023163315065,-75.24742129623301,coquimbo,65.95,99,0,23.11
87.8471148184594,144.2051801833676,chokurdakh,-14.7,68,64,14.05
83.94818963806154,90.0398464072124,dikson,-7.86,64,68,8.23
59.812518913685125,59.23798268244215,kytlym,20.59,54,24,8.46
-87.72842528129776,51.24395956287273,port alfred,-57.36,0,0,18.41
-11.152652595522724,-31.909083592114115,maragogi,81.34,100,0,12.48
73.29386609974853,142.08308210505027,deputatskiy,-16.32,48,36,7.0
-1.0225062835966696,-18.92933629679007,georgetown,79.99,100,92,12.71
22.774839684288295,71.26427142876173,halvad,96.19,19,0,10.02
-15.765405319621749,3.734250333743006,namibe,73.06,100,56,14.72
13.853334206489905,56.60653807501663,salalah,77.02,100,0,7.45
49.506421503332916,-176.8738145448149,provideniya,39.22,98,92,10.02
46.383115333797946,-7.560957282868912,cervo,51.73,100,76,13.71
-23.461395028063663,-3.762595135729555,jamestown,73.87,100,56,15.05
86.62713886556261,1.3376008792582468,barentsburg,-3.81,78,76,10.69
-64.45316516806832,174.60717857119676,kaitangata,33.28,100,88,34.63
-4.681058999116729,-163.15467083253623,samusu,81.79,99,92,16.4
89.01045877153425,-67.77091336415356,qaanaaq,-8.31,82,68,22.32
87.66654116562052,114.37503936862123,saskylakh,-13.8,65,68,14.05
41.5359861094376,15.242825169894388,lucera,52.18,62,0,19.46
75.80457596765149,-7.077267269610047,klaksvik,18.7,100,64,20.98
60.12408084494879,158.08388576809602,palana,-2.73,100,36,10.47
-22.345981809769143,-163.30548728540944,avarua,80.17,100,24,16.73
-16.564884762480503,-67.77108004330975,chulumani,44.6,93,75,6.93
47.325678896218534,26.16191961442553,rasca,42.8,93,90,12.75
68.44885439362773,-62.31259575877857,pangnirtung,3.49,93,80,3.98
67.64649151906275,45.02978774827781,mezen,17.44,88,12,12.37
68.65425453595893,-121.5911294311584,norman wells,-3.36,72,36,5.88
-37.44847462087361,21.45748679130594,bredasdorp,74.14,100,80,9.57
33.96625396365566,159.9616681470444,sentyabrskiy,56.59,100,8,26.46
-41.444337519024394,26.259772502283937,port elizabeth,62.44,93,88,23.22
35.0176884518541,72.11519247418076,dir,51.19,100,100,2.42
19.060108072917146,-129.2202610275658,san quintin,70.36,100,44,15.5
50.725848125476716,-43.9983557345698,torbay,42.82,100,48,34.18
76.80694064295344,155.2788066432546,srednekolymsk,-2.37,86,56,25.12
-44.2120313905658,-106.09435385139159,castro,55.15,96,100,12.03
-60.903400508141,-30.428542941732758,mar del plata,33.37,94,88,22.32
69.89465088965053,-67.43747928842589,clyde river,-18.57,100,12,2.42
53.81268002072619,-68.06003433421682,port-cartier,11.68,77,56,8.23
7.538327682440823,-162.37799622448932,hilo,80.62,100,36,13.94
-18.04996563791407,25.02319460665484,kasane,79.09,69,36,14.72
-23.696376505883975,135.72626185752392,alice springs,90.79,16,0,12.03
73.02265464453444,-161.01233305032326,barrow,-0.75,79,56,17.29
-33.82735128164218,123.65999766494895,esperance,70.63,65,12,13.04
33.44374006988957,-25.37629897176876,vila franca do campo,64.69,98,76,19.86
39.962965238275245,12.739784198777954,forio,57.94,96,0,26.13
6.592920713929118,112.59372505189475,miri,80.71,100,32,17.96
35.41813796099237,76.13309100991887,kargil,16.45,89,88,0.96
-23.701139342040975,46.63159937282683,vangaindrano,83.32,46,0,7.11
-34.88048622857525,-38.4983429448078,laguna,70.54,100,68,27.25
50.227985582780775,-38.816031504451615,nanortalik,43.36,100,68,27.36
63.729395944930644,-40.149844245569994,tasiilaq,19.51,90,0,14.94
67.464463720595,20.581447987397155,kiruna,9.5,78,90,9.17
-20.601440507380204,164.9227339167524,hienghene,78.73,100,92,20.2
2.862327227887107,162.0789420636725,butaritari,76.84,100,92,12.03
47.78368093787773,122.34639303305363,zalantun,38.14,45,0,0.4
6.852969889278313,-63.0127187698413,upata,73.24,76,0,5.88
-89.40540045736725,30.632497075652566,kruisfontein,-46.2,0,0,19.75
52.90808704525003,-121.83171115164747,quesnel,23.0,100,1,2.86
15.769587406240092,-5.492301795554624,sokolo,86.11,19,12,14.27
-40.33881680005091,65.2936705794007,saint-philippe,62.62,100,0,16.28
61.253894793427435,120.54024093456565,verkhnevilyuysk,2.77,56,64,7.0
34.09333991589081,99.19082211811718,xining,28.69,58,48,5.55
56.97541259012863,146.9059915558708,arman,4.21,100,36,7.9
32.746582736301264,-66.26995726667101,hamilton,66.76,99,44,39.44
-47.4908462089938,-55.173350779768654,necochea,60.01,100,56,28.59
-28.35196302208268,69.6077526094623,bambous virieux,77.02,99,36,15.05
1.1064271286105765,81.04870944912801,matara,80.08,100,36,6.78
66.1134229709217,-103.85936147167197,la ronge,-11.01,72,56,12.71
16.560307591728744,-37.52423652627306,ponta do sol,71.62,100,48,20.76
35.576334436393495,-160.7310653496837,kapaa,54.07,100,20,12.26
75.38125449990022,34.94617363827271,vardo,14.74,100,36,21.54
17.473979409431735,-4.948280032889926,goundam,80.62,18,0,11.25
79.15448262992021,16.808430997501716,longyearbyen,-25.95,37,0,2.3
63.455074327789816,146.81773624298648,kadykchan,-23.52,60,24,2.75
30.377323252828404,54.797464772484375,shahr-e babak,59.11,47,0,5.55
79.35040602395827,134.77836705277286,nizhneyansk,-12.54,81,36,16.06
-10.084370080223366,-143.05155205989337,atuona,82.51,100,56,12.93
-13.936191410692501,-59.917680807957126,vilhena,71.44,94,36,3.2
17.681276765713633,91.08689422631141,akyab,79.36,100,0,4.32
52.25619108101478,130.49321391574068,fevralsk,16.99,78,0,2.98
51.15042398675973,-132.03340078539034,prince rupert,47.14,91,92,17.74
13.062901101964187,47.13123132335184,aden,76.48,100,36,8.46
50.46655966895821,43.41898407073106,sebrovo,10.69,93,8,8.9
74.87396042784192,86.05080202961756,dudinka,-10.47,100,56,24.56
81.96260884658088,-47.31703190726151,upernavik,-26.22,40,24,3.42
-20.320219312877924,116.91512437925064,karratha,88.36,93,0,8.01
54.88606202460093,93.78713194577222,krasnokamensk,13.12,54,0,2.75
44.38142819983943,-127.59958620320617,north bend,48.67,100,80,19.3
44.50377504293766,-101.6264007832883,pierre,21.2,92,1,4.7
-49.63563261434963,157.8793779601711,tuatapere,50.74,100,92,21.54
50.568787784149436,104.06761151838526,bayangol,14.11,64,80,5.88
5.372941110988478,-22.428629877192463,bubaque,79.36,100,56,4.09
-14.01361698429335,-90.29690244782101,chicama,73.78,100,20,16.84
39.43363910255849,62.019825081021,seydi,48.31,91,44,13.38
-25.309545289199335,-34.33733840867916,sao joao da barra,78.46,100,0,13.94
-17.670530010551744,163.89122734457925,poum,82.87,99,32,27.13
2.060499850019994,-1.4730554766931903,takoradi,76.48,100,92,9.35
62.20229184188992,-66.95460308736435,iqaluit,9.16,88,88,2.75
27.13494972926432,-88.33470029205235,pascagoula,66.49,100,20,16.17
74.4435065038702,-49.55401100271041,ilulissat,-30.99,40,0,24.56
21.011114597995785,149.45855716903708,katsuura,76.03,100,56,26.46
50.04537656855476,78.29356908963098,semey,16.81,97,0,7.34
-65.67534724315077,132.51581511227977,new norfolk,20.86,100,76,42.57
66.98402993569869,-168.85683099047935,lavrentiya,-8.85,83,24,12.93
25.119422584015027,137.00497784288882,naze,68.11,100,0,16.06
30.178115886844296,-107.74344207565713,casas grandes,33.46,84,0,2.64
-2.9200165878906716,142.53348831965155,aitape,82.69,100,12,12.59
-22.849547655526536,78.4565423870418,grand river south east,77.56,100,76,24.67
20.098689613363447,-21.058047206666373,santa maria,67.57,100,0,22.32
56.0208649754496,27.11306792502333,kraslava,41.11,98,92,18.07
20.664667342749368,-72.12991473901884,cap-haitien,77.65,100,0,0.18
71.87525162264257,131.616657289888,tiksi,-23.79,72,12,4.65
-31.86166244972611,96.65981864453863,geraldton,68.02,100,80,17.74
43.98630766401101,141.70504004382883,rumoi,39.2,80,75,14.99
45.008860004898196,81.92593241658119,yining,41.56,100,92,3.98
30.26714538309365,-81.47001671521996,jacksonville beach,43.83,65,1,9.17
-19.650280887142046,88.73403013221042,bengkulu,77.11,100,88,23.22
77.94525987753843,174.66094807844013,komsomolskiy,-5.34,85,68,27.92
32.21733173543245,60.61831618511718,anar darreh,61.09,57,76,8.12
36.21135026794394,-135.33312399831505,fortuna,52.72,100,80,23.55
69.02135838324594,68.61603495141873,aksarka,-7.23,92,68,12.59
22.47467867706935,-65.25626294034578,loiza,77.38,96,44,16.4
41.42159210357519,82.39633060816226,kuche,70.81,28,12,6.44
16.308934844392397,-83.44526381565942,barra patuca,79.09,100,64,13.04
11.48742173267496,99.43356575929818,bang saphan,84.94,79,36,6.33
30.1023634984969,-22.237051041409302,los llanos de aridane,63.43,100,100,7.34
31.577483091326215,102.43547085069503,linqiong,31.48,54,88,2.08
-11.145485217355741,133.7812617172675,maningrida,78.91,100,92,13.49
-40.24408458037904,-90.42023247146443,ancud,61.27,100,56,26.8
70.91120017773841,38.0430355555998,tumannyy,26.26,100,48,13.49
33.098382511843866,65.6493232062958,deh rawud,57.31,49,64,4.32
-30.124516860966494,86.58862544674827,carnarvon,70.36,100,12,17.29
-18.92764899202433,24.507285006427168,kachikau,79.09,64,56,15.95
-1.4177742865293226,-168.99458498749965,saleaula,78.82,100,92,13.04
-43.77964231209882,-20.263904666726376,arraial do cabo,53.44,100,92,30.15
15.520229851710582,39.19885181922257,ginda,80.44,42,0,4.32
9.313782822020528,-68.88819907154739,villa bruzual,76.75,56,88,6.67
-2.3908127371410757,33.90389913505521,matongo,73.69,100,20,8.57
78.51336730370033,-173.99835179050118,mys shmidta,-8.67,67,56,26.24
68.03865563899825,50.70515211570947,naryan-mar,21.49,94,88,3.2
47.58573374739228,-126.12403013095837,ucluelet,51.55,87,92,11.48
54.74400544074129,89.86791882265959,kopyevo,10.6,83,0,3.98
65.07747581793438,32.159629866897205,kalevala,27.52,88,92,5.77
46.68222014905322,145.60203992505188,novikovo,32.2,90,92,23.11
58.463806301475785,1.5988862121389218,lerwick,41.0,65,75,31.09
-14.387780982255137,-174.76796056981883,halalo,85.66,95,92,15.61
35.30360098429777,-2.619308025777144,melilla,57.02,72,0,2.24
60.76960508978212,66.88354732524576,kondinskoye,16.9,86,36,10.8
17.83045890645728,16.88262695969192,faya,92.86,11,0,13.38
28.29884681484664,13.198860538280854,sabha,73.69,28,0,12.03
8.904020482339845,124.31528635167183,mauswagon,80.89,100,0,22.88
-4.431458438180869,95.42232937359313,padang,85.12,100,44,11.14
56.41539223032805,-22.276407738483186,vestmannaeyjar,43.54,100,88,3.42
60.11298303551854,-151.7207131444904,homer,28.99,79,1,12.26
26.884610571489233,-151.06110567101297,kahului,66.31,100,80,10.58
34.703895792350224,29.07972186771957,lardos,62.98,95,12,19.86
-43.934078771344495,-65.42017528308577,trelew,51.91,75,0,19.08
-28.502822456935405,151.30480853804522,warwick,70.0,64,0,10.92
80.73941805854972,-138.97422604711429,tuktoyaktuk,-20.73,62,20,12.26
50.18864584269744,154.79053811241243,severo-kurilsk,27.61,100,64,13.27
59.86792228143213,-115.8762621905825,hay river,28.42,72,0,4.88
40.71549508785813,-115.85450947201845,elko,35.6,80,75,3.36
2.9794881646102738,178.697961690051,rungata,82.96,97,0,10.47
-61.10000996755193,-18.947246459690405,cidreira,33.01,98,88,27.13
9.55611222000266,118.93190199857179,puerto princesa,87.8,62,40,11.41
17.4052021993775,100.50790445574205,nakhon thai,81.16,59,0,2.75
21.987725842876003,-54.874367902779625,codrington,74.77,100,20,11.7
12.682170401491604,-123.41352836037817,cabo san lucas,77.56,100,88,16.51
9.268874884015474,59.907459389157054,bargal,81.16,100,0,7.56
7.499014635838222,-91.88456386251863,acajutla,79.18,100,12,11.03
82.50425277501324,167.7851820808832,pevek,-25.77,40,24,5.1
-47.822136929843204,42.33970789083773,umzimvubu,45.79,94,80,29.15
16.80776555901727,85.45399742838322,narasannapeta,81.25,100,0,7.78
9.13347529732819,84.39463195616668,batticaloa,83.05,100,32,10.69
-8.415860637464647,-75.06814207423176,campoverde,77.0,94,90,2.24
24.338611525342742,79.23090488367268,shahgarh,95.74,25,0,6.44
58.39986429261799,-11.753545658078991,ballina,46.69,100,68,20.09
21.356705299493868,-8.094368252633132,taoudenni,71.17,29,0,10.92
16.973399468290893,-63.29917974982048,oranjestad,71.6,88,0,2.24
74.88713376825905,-93.03787217769838,thompson,-31.01,66,5,9.17
54.91264780479398,124.32435929245429,tynda,12.13,51,36,5.21
49.64192718227255,-161.40891888138344,bethel,42.28,91,92,24.56
13.313781869207304,126.35763643499877,anito,82.96,100,0,17.96
60.73832408892639,174.55799393917385,anadyr,19.96,100,44,16.28
29.504484775128375,-133.156051624748,pacific grove,64.06,100,56,19.08
-14.732821214684463,-76.20696426229445,santiago,68.02,96,24,9.24
58.50024784823748,9.924799063120702,stavern,33.91,95,92,21.77
39.75548712952505,169.92918537699342,nikolskoye,48.31,100,88,24.0
50.55478143475568,159.29878673237874,petropavlovsk-kamchatskiy,28.6,100,20,16.62
7.63712548863937,142.667731183226,airai,84.04,97,8,13.04
47.56921428682671,89.4998030504056,altay,29.41,83,56,3.2
50.50728051777179,-109.72474352773499,maple creek,15.82,69,0,3.09
35.41611256561161,-96.63852224853142,shawnee,32.0,80,20,3.36
40.934062461139916,-66.2193966744805,yarmouth,49.3,95,92,48.94
65.50850058921844,93.78521978685228,baykit,-10.65,69,44,8.68
80.00640388204155,45.35065380566479,belushya guba,-7.41,100,32,6.89
19.72137173702164,-82.03249895912961,west bay,77.29,100,0,3.87
-19.4740742765444,-92.71920658102843,hualmay,69.46,100,92,16.84
-20.839068374439194,37.81044366823056,quelimane,81.7,100,64,14.72
35.68397681101331,23.8847653237558,kolimvari,62.6,72,40,23.04
38.6058763463966,119.73675124971908,longkou,44.8,74,0,5.44
50.63243756212992,-120.12609336916113,kamloops,35.6,74,5,4.7
14.306886222799278,84.38717324568324,yanam,80.44,100,0,5.77
-2.7390394462711214,43.925504783707424,bur gabo,79.81,100,24,2.98
18.715603543661558,103.16114935256991,pakxan,70.99,82,48,1.74
50.535057702501376,150.02609740985542,vostok,30.4,100,88,22.44
16.002295838445036,123.59886973159132,dicabisagan,78.73,100,0,14.27
-17.457329355309255,57.10038692625233,cap malheureux,83.32,98,44,28.7
29.97787530669686,76.45409047623752,pehowa,91.06,47,20,4.88
81.22560673997646,160.6892458803983,cherskiy,-19.02,56,36,14.72
20.445025309930998,-51.769020371242306,saint-francois,74.59,100,80,14.61
12.363595639697778,99.63363082865197,sam roi yot,87.8,66,20,14.99
4.404860085349057,125.03341043283382,sarangani,83.86,99,0,13.04
-18.78496640613183,98.94836897851269,palabuhanratu,77.2,100,0,9.46
-48.83116442927979,-39.42735955789743,chuy,50.38,100,80,30.38
59.95077118493478,-4.93873484047333,stromness,42.91,100,68,19.42
1.5674738519976756,-16.501578171122617,bonthe,80.62,100,88,7.67
13.672336274204795,32.72455608445304,umm jarr,91.51,22,0,11.7
10.3579899845964,43.183880478869554,borama,85.66,39,0,4.65
-4.220534186595444,24.675108302472523,lusambo,91.06,54,0,4.65
0.8392069038856818,151.52613039462477,kavieng,84.49,100,8,8.23
-12.057548359562205,139.25262308500265,nhulunbuy,85.21,100,80,10.92
-14.672797023130627,68.77149012727762,quatre cocos,80.26,100,88,5.77
5.944240966675082,-114.68841763333246,san patricio,79.45,100,92,10.8
30.30913002525898,-27.883025571154974,ponta delgada,65.5,100,88,13.82
47.349166187794424,-11.129330856291858,skibbereen,52.0,100,88,26.24
35.806402347347586,-52.67256078054358,saint-pierre,63.34,100,92,18.86
27.889397538121457,49.34302154716755,safwah,75.04,67,0,8.01
-24.88855060103225,25.348031751887305,kanye,75.2,60,20,14.99
-39.564930526176795,165.09620710550882,te anau,63.52,100,68,20.54
50.11944584296117,179.10101416144704,beringovskiy,37.6,100,80,12.15
-19.338461612510287,47.79430639049326,antanifotsy,75.2,69,75,8.05
65.92562644320307,-141.58858598168416,mayo,11.14,68,12,4.21
-53.15815071728438,49.764832644520965,tsihombe,39.31,97,92,34.18
3.029863789024347,-11.249425013188642,buchanan,80.89,100,92,3.65
43.94647874729574,-61.102831557673014,port hawkesbury,36.34,100,80,26.13
33.54819198960739,116.8381279334962,suzhou,73.69,51,56,7.78
-24.61437501649793,-68.88438036473683,taltal,39.58,100,0,1.97
37.95399356019226,103.78816874839765,wuwei,64.15,64,12,3.98
-23.199191890727874,-23.238485748049612,caravelas,79.27,100,80,20.42
48.5069086674103,-129.49072627895805,port hardy,49.12,88,88,31.72
23.40974244798339,-113.75129351026638,constitucion,69.46,100,0,19.86
-27.006372004304346,-168.92550444582065,alofi,77.92,100,12,4.65
30.752308480126302,-88.94118773291108,ocean springs,44.58,65,1,10.29
2.334920158132846,174.78754755755858,rawannawi,83.14,98,24,10.02
23.89574665789914,-105.06795499772909,durango,45.52,78,0,3.76
40.68085087272766,-6.708012003364132,guarda,48.58,98,64,9.01
9.142908824081516,-46.166436321095546,cayenne,77.29,100,0,25.12
-10.255966022997072,171.58336320711845,sola,84.22,100,20,14.61
-29.304268935093262,146.90269273697783,moree,81.16,54,64,2.98
43.38774510950188,-26.318660450453933,lagoa,55.24,100,92,24.79
59.2177772816884,24.969430272604058,vaida,35.6,100,90,5.82
-27.69698378674869,-70.4370819813222,copiapo,59.0,77,0,9.17
1.821424327975521,-38.946067580622696,itarema,80.26,100,48,22.66
52.256924701472855,-80.55906357507658,moose factory,12.85,85,48,11.14
55.885359719281894,28.239284476495868,disna,39.22,98,92,17.85
4.222973356396764,-78.32960318292581,litoral del san juan,76.03,100,100,5.66
-21.376754988346292,92.5538969919312,labuhan,75.67,98,88,19.64
38.76770057464216,-76.61669163546091,rosaryville,34.16,96,40,12.75
59.91247891706328,-143.32484722213806,haines junction,41.38,91,92,27.92
85.22547179455046,29.1893844169673,mehamn,-9.75,88,76,23.0
45.713512598251896,15.505436541456845,metlika,45.64,87,0,1.12
0.9520437905979549,133.68449210949728,manokwari,81.16,100,64,7.23
48.40722926244169,48.98520377661512,aleksandrov gay,15.82,100,0,7.56
20.453715108699342,-43.581468669700314,bathsheba,73.15,100,0,14.83
30.612710233411534,-59.30736510386882,saint george,71.44,94,76,29.15
13.096602390529142,-130.15854339956488,guerrero negro,76.66,100,36,16.62
5.5570116319320135,10.214227402203363,mbouda,74.5,90,0,3.76
-11.364711136995439,-177.13814543726022,vaitupu,84.22,100,36,15.84
55.76845647974855,33.90270457702283,sychevka,36.97,98,92,15.73
45.37601922363322,94.02357980347631,hami,34.36,53,88,5.32
-1.0827725503729084,-54.61880147674347,alenquer,73.51,94,68,2.42
-19.385218941943194,-80.02630915388873,marcona,70.09,100,92,12.71
57.448157179804184,45.764203686702075,uren,18.16,81,92,8.79
39.698922236745005,-108.68027261749809,redlands,39.9,45,90,12.75
46.54010943601432,76.78973186042697,ushtobe,38.86,92,32,13.15
7.493526575184717,-11.11451943968089,gorahun,79.36,82,68,3.09
-7.746371545219532,163.61609323899478,auki,81.25,100,68,4.32
-12.513813798533704,-52.456162625075535,sao miguel do araguaia,72.88,97,92,2.53
66.1224323458641,105.72553958867633,yerbogachen,-5.43,53,12,3.76
75.7269821598943,175.9933134218017,leningradskiy,-4.44,81,68,24.23
54.05055324178622,131.99337274927888,stoyba,16.81,62,48,1.07
49.43247566442966,22.048978442069398,sanok,50.29,84,64,2.86
66.30016224711864,-26.17605944744699,olafsvik,30.04,100,88,22.55
-27.603864818866995,35.28398262887072,xai-xai,78.64,100,32,12.82
36.55736676029788,-85.27255588197602,cookeville,29.3,92,1,5.82
15.946038485512048,-96.477138221891,huatulco,50.74,86,0,1.97
55.242991543143205,106.63808428098565,magistralnyy,6.55,44,48,7.0
27.74921199512984,12.11646002218231,awbari,74.86,22,0,12.37
-49.95631965958198,-71.45506266720204,rio gallegos,47.41,41,0,22.77
63.13583906864196,131.95851424024096,borogontsy,-9.03,66,0,2.64
1.3604184947580222,-75.87336206576279,albania,71.89,87,0,2.08
45.51825918517483,-71.61488464526997,east angus,32.0,78,90,13.87
40.85738789739685,-116.79277621061237,winnemucca,37.4,74,1,3.65
13.980516961878166,122.09072747207671,progreso,80.71,94,36,16.17
-18.198219089768102,154.67470955994105,mackay,79.09,100,100,22.88
8.198180458664964,54.01985135643713,bandarbeyla,79.72,100,0,7.56
2.8754475373331445,-107.59503120810218,san jeronimo,75.31,100,88,5.55
-15.181215939558172,-86.7810897521961,huarmey,73.15,100,44,15.05
-4.406825722341935,29.3678009606071,rumonge,76.84,100,12,4.21
-51.33441191184414,-56.01417307275334,rawson,50.74,90,100,29.59
-5.119750454569555,-79.46184947260188,huancabamba,47.05,93,12,0.96
7.821322685830637,21.605681616568432,ouadda,93.22,43,48,4.65
-15.179158846922434,-55.60478674967433,chapada dos guimaraes,71.08,96,64,3.2
52.936307714852774,89.73194529856528,tashtyp,15.19,66,0,3.65
7.5069019380116515,159.5138896728655,namatanai,77.29,100,92,12.59
0.7073004758286601,24.186080442095033,yangambi,82.33,81,12,5.32
-0.5300879202524271,128.3252882910935,tidore,82.69,100,32,1.74
37.639332928333715,-90.31216655378194,farmington,32.0,69,1,4.7
80.75165200666768,61.44602323521866,amderma,-20.55,90,12,4.21
46.12055697371929,-71.50542186421166,thetford mines,27.34,75,80,7.34
44.7155244546376,-113.84768487414323,hailey,29.28,68,1,1.86
-5.979523357721703,-150.5452295392954,faanui,82.78,96,88,16.4
4.9922873750828245,37.90293628676997,yabelo,74.5,65,80,2.75
64.191808762932,12.581988489254144,snasa,14.0,92,40,5.82
68.92832645987207,96.83334850187379,tura,-16.05,62,32,3.42
41.20878832209209,19.982180366093672,kerrabe,52.48,71,75,9.17
49.075077551386215,76.15589911950178,karkaralinsk,27.79,97,32,5.88
29.064822339642802,-101.79986867084665,acuna,31.66,69,0,2.19
10.943793486037137,-50.10881255847556,sinnamary,77.02,100,56,24.23
43.41500928610051,-73.30907889947385,glens falls,30.2,86,90,4.32
59.34803631463336,85.37920417196108,belyy yar,7.0,55,20,7.0
0.46144763341665396,-84.63231072048143,manta,75.4,99,92,9.24
65.67998221895442,145.34161373676613,artyk,-18.57,46,48,1.97
-52.174466075378206,75.22206423766215,souillac,40.39,96,68,30.15
-45.69917448148984,171.87454616976453,waitati,57.04,97,44,30.15
27.22549588599594,46.03004447398101,buraydah,83.14,17,0,6.22
58.25682897072309,96.5440403194358,boguchany,9.88,54,0,5.88
54.089884297550384,121.57503789324306,yerofey pavlovich,17.35,41,12,2.53
27.363668840302807,97.72824425976864,tezu,52.72,100,80,1.41
50.11766428280137,117.69789155848201,klichka,27.34,62,88,7.56
33.21040985167204,153.49077172438564,nemuro,56.86,100,0,16.28
19.61375787628664,64.64043768703667,dwarka,77.38,100,0,7.45
1.9108153692071994,-66.31940346200263,sao gabriel da cachoeira,81.16,76,32,1.63
23.58473610100458,28.397682228006232,sohag,80.26,25,0,5.77
6.037146211731823,-68.50373630431181,puerto ayacucho,83.14,57,80,2.75
36.03649299658426,112.10437489948964,linfen,71.71,24,0,4.54
40.36759846322147,-96.33365907986345,beatrice,28.98,86,1,6.93
-8.449963108123242,55.29946372359038,victoria,82.06,100,64,22.77
48.388597140914584,-17.75476682118523,dingle,52.81,100,92,26.13
-31.191769589179025,35.35342607244627,richards bay,75.31,100,44,11.81
8.970236129857653,74.51662505021315,alappuzha,84.04,100,24,2.53
28.39928029019721,-17.117733980005994,guia de isora,60.8,82,0,8.34
52.211482565294375,90.94245282412629,beya,15.46,54,0,2.75
74.97691415655692,-62.632898824437476,narsaq,-9.3,100,64,1.63
34.268890765821595,107.18327099450033,guozhen,66.31,37,0,2.75
36.10722877843709,81.21861719175917,leh,26.44,92,0,2.08
8.22467091397894,-41.206816898475296,carutapera,78.19,100,0,25.34
61.48163818966671,41.04136647322713,podyuga,26.62,94,88,17.29
-16.99682076220091,-68.34536922594413,patacamaya,44.6,93,75,6.93
39.773995960593595,24.501270531520703,mirina,62.6,67,0,14.99
47.465766811170596,74.43623563310558,balkhash,38.05,85,56,11.81
28.55095789804787,-10.611412606097048,tiznit,59.0,93,40,12.75
-47.4132633983215,179.23497236588878,waipawa,54.16,100,0,21.88
45.63524420848279,-4.779844921309575,llanes,51.91,100,88,8.23
23.27282552909358,98.5426510952451,lashio,72.43,44,68,2.42
68.75710653383933,0.6842775404146835,raudeberg,38.77,100,44,16.17
16.20141677691072,42.09433374113863,jizan,78.73,100,0,4.88
-1.5034685533311034,5.380898597976994,port-gentil,81.61,100,80,8.9
28.83977460709893,-74.52544394481684,marsh harbour,66.67,100,0,29.15
51.08707619220607,56.17248395274174,dubenskiy,10.06,88,0,7.11
49.611148555631786,43.759428460253105,log,12.49,92,0,9.24
52.23681566240771,-140.06036230935254,sitka,41.29,99,36,32.5
74.5047749312466,25.93389423003282,honningsvag,23.74,100,32,23.78
55.36678615999557,-144.06400303489386,palmer,42.01,97,92,30.38
-31.18033675834178,-154.66301207458497,avera,70.81,100,0,17.07
67.69819076204632,-25.20817276092356,bolungarvik,18.34,100,56,45.92
44.67369106756206,31.46289288533194,zatoka,48.22,93,92,23.67
64.93725266131639,56.30229320696762,kozhva,23.11,80,76,8.79
-19.608786277054264,-60.511160813063526,mayor pablo lagerenza,76.75,89,24,10.47
10.246442957260953,82.42782700097536,mullaitivu,81.88,100,80,12.71
14.217414907615222,-35.40300479721466,porto novo,71.44,100,32,21.54
35.014147150777845,-95.69675800215755,okmulgee,28.35,92,20,3.09
43.20020252173856,5.6634919920674065,la ciotat,51.06,50,0,17.22
58.53789760996719,38.16716022591527,breytovo,32.56,98,92,20.42
24.923050374976555,-99.70291816413358,hualahuises,48.85,61,8,1.97
19.808904471697588,-100.75859917883412,zinapecuaro,62.6,48,5,6.93
46.82373332756697,47.52690758905763,narimanov,23.83,96,0,9.8
-0.46432004075018085,-63.91503175395803,barcelos,80.8,72,64,7.0
58.47286979608975,39.377582372780324,poshekhonye,30.22,93,92,17.52
44.345148965326814,-58.1473567968732,louisbourg,35.62,100,24,18.52
65.37585602178757,-149.6574243226753,college,-0.39,63,20,2.64
-34.08359641194377,130.2920691830244,flinders,66.58,100,64,14.38
-2.362445977394998,-74.27964252291324,iquitos,72.97,96,0,2.64
-0.12611394526466313,10.56053835967495,ndjole,79.18,94,80,3.42
39.29150337354821,-94.44675206143484,liberty,33.17,55,1,4.7
61.2660917435104,29.40368697960662,kamennogorsk,36.16,100,92,5.21
50.210660357029695,132.20028618667135,tyrma,19.69,50,0,5.99
41.373883459092184,117.04955481371417,chengde,64.51,22,0,2.98
37.47754459911447,8.883643557437154,tabarqah,60.8,48,20,12.75
-15.292741594941702,168.41537126517147,luganville,83.86,100,48,15.73
44.95596857523614,-123.22475437226817,dallas,54.57,75,1,7.34
28.913589076651647,-38.29761696069238,ribeira grande,68.29,100,0,7.0
-22.728190364196976,-73.3842788112398,antofagasta,69.28,100,56,13.49
4.0354793445054185,-86.43922811757596,burica,81.16,100,88,7.67
4.15303935001991,-8.088425566278715,harper,80.44,100,80,4.76
1.3361581046551265,163.67296706877784,bairiki,80.98,100,64,15.28
13.003477306057817,69.60337215637063,kavaratti,83.32,100,8,9.8
31.34145219246477,-13.37503562998836,teguise,63.61,99,0,3.53
15.785179720102718,-77.12213973636504,bull savanna,80.26,97,92,14.38
55.107229552224226,120.56080761847369,tupik,16.36,43,56,3.2
14.309503016535686,-79.63592746430196,san andres,78.82,100,100,12.93
-12.821179923043601,128.41344807566617,port keats,83.32,100,20,14.27
51.781382518500465,155.974757833272,ozernovskiy,25.9,100,0,9.24
-16.073433678915336,142.22307130866653,mareeba,87.01,30,0,6.11
44.03777170228119,14.559739920215463,pag,51.8,87,90,5.82
-5.49875172107626,176.99166714596043,lolua,83.59,100,20,10.8
61.990162844563315,77.95779295203926,novoagansk,13.03,66,56,8.68
63.14572480821511,-57.851486944811455,maniitsoq,18.61,99,68,6.44
5.564656209576256,19.52671470707938,sibut,84.67,65,88,5.32
79.86828513093758,90.86381986605909,talnakh,-13.8,100,36,7.56
-18.11140464117689,-47.733037390090516,catalao,68.29,83,76,3.98
51.3965000253406,107.26345432729767,tarbagatay,19.4,48,20,11.18
-28.79620282273433,27.222943302625737,marquard,76.84,47,24,11.03
45.015644197144155,117.55307174091803,chifeng,48.58,40,48,7.45
11.032880637405995,107.82235551272066,phan thiet,83.59,75,12,14.38
36.55676869789022,79.18155554595762,shache,33.28,91,32,1.19
3.9046116733548644,-44.61546945124087,salinopolis,79.72,100,76,24.0
59.66016776820783,82.11875779664138,parabel,10.06,55,8,8.01
34.41247320645083,113.2022317933862,dengfeng,77.0,36,0,8.95
62.33243825838895,37.42688183605307,pudozh,30.76,90,88,7.56
52.9444979031353,-133.41670261342279,ketchikan,42.64,100,92,8.68
43.563798051299756,-120.23445985148999,redmond,43.63,53,0,11.36
54.614310680345454,-114.22362094980355,barrhead,10.78,62,8,3.65
-10.41651479691059,-47.41777584008747,palmas,69.64,99,92,3.42
24.93857522228103,-69.67291036526629,cockburn town,76.66,95,32,19.19
13.467946376975547,35.54211145276932,doka,93.58,25,0,5.44
41.89977137191957,-94.81125440831967,carroll,28.4,79,1,11.41
35.631363370432695,145.65849396892713,hasaki,54.52,100,0,12.37
71.48823752656597,3.866664541588136,bud,36.88,100,48,17.85
41.835462553109465,129.84646490003854,khasan,51.82,61,0,6.22
-22.85907757216205,-59.932252561254415,filadelfia,81.61,76,76,7.34
-28.31423289747113,-57.9436927456085,san lorenzo,66.94,62,0,9.24
44.69198240370079,105.67810314305376,mandalgovi,57.22,33,0,9.01
-34.225885100014374,144.54582485140622,deniliquin,73.15,35,0,8.34
58.00757786592726,18.941591319813966,visby,35.6,100,90,5.82
43.34728716120091,37.498910009503476,divnomorskoye,51.64,91,0,18.07
30.230218582241733,-17.32641868619936,santa cruz de la palma,64.33,100,0,3.31
11.217991139670517,-65.60959379299898,guatire,78.55,96,0,24.79
12.90622246176109,97.79758255111233,mergui,84.67,100,0,14.38
71.11617298624643,-53.30570710695852,aasiaat,-0.39,96,76,2.75
11.54850168365543,105.7217127289631,tay ninh,92.05,56,8,4.65
45.24236052395207,18.728003691809477,vinkovci,50.0,87,40,3.36
35.0675746041137,37.71605032881041,salamiyah,64.87,31,8,3.98
28.14243730168971,-91.08400145139943,houma,57.2,54,1,21.92
34.60593046791735,105.97254532780522,beidao,59.56,54,0,3.2
-4.493415368936027,-87.01956582482293,san cristobal,79.54,100,24,9.24
-29.91499015211349,163.94004232877842,noumea,72.7,100,68,8.68
19.865354217606708,-11.66377811660027,atar,71.62,29,76,12.59
52.70792827717375,61.424737231149095,zhitikara,10.78,97,8,9.35
-8.258445043497517,6.040795178269519,soyo,78.01,100,8,8.79
42.91859819617409,98.60333549322445,jiayuguan,63.34,18,0,10.58
38.59112921930634,30.33194502113932,suhut,59.38,47,36,11.48
-11.061102909329804,42.546384262502016,mitsamiouli,81.79,100,56,7.56
14.008436225107843,-1.3227587376063639,djibo,95.02,13,8,6.22
64.86030217616897,89.58984598332052,turukhansk,-8.58,78,64,12.15
23.124772303138826,65.87131596131292,keti bandar,76.03,100,0,9.8
58.12821566641111,21.19218587706797,ventspils,37.78,87,48,14.5
53.18661695010118,32.97346967002403,mglin,34.36,100,92,20.2
51.31073136902796,68.44092162490531,atbasar,16.9,94,44,12.26
2.108995130888516,143.75214611198146,vanimo,83.59,100,12,8.23
-16.71125257405899,-33.97416615925701,belmonte,82.24,98,68,20.42
37.08599485095337,12.212744257559677,mazara del vallo,55.4,87,20,10.29
42.65028036120461,-86.22355276000117,holland,29.8,100,90,6.93
17.178471577771575,-86.00700383882632,savannah bight,79.09,100,20,10.92
26.780432321497628,114.6031256175462,jian,69.64,88,48,2.08
4.32198389438949,131.05307574544963,kloulklubed,84.31,100,0,12.48
59.223164991473055,77.41540063843581,strezhevoy,14.74,61,12,9.13
26.668530152013176,39.24961597095731,umm lajj,79.99,13,0,5.66
27.11095567506719,-85.60015149204018,seminole,65.86,100,12,17.74
-35.02660488667451,179.34125440550685,ruatoria,71.62,100,92,23.33
-26.441967177209477,-54.92644852465854,carlos antonio lopez,68.29,90,0,2.08
58.736226848247185,139.7120862923244,ayan,1.24,66,56,1.97
21.78626189605839,-88.76473505454916,dzilam gonzalez,75.22,100,76,15.84
-27.101167582071064,29.597027743704587,volksrust,70.81,68,0,3.76
8.880294875560693,81.34862414352864,trincomalee,81.52,100,56,13.15
46.942802913018994,-99.91507268670175,bismarck,8.6,92,1,2.86
37.86498223237841,-100.65697251825691,garden city,33.51,37,90,6.93
-11.920802088989902,127.892141981956,nguiu,83.59,100,36,10.58
-28.980825457253317,120.00844422365782,northam,93.94,21,0,10.02
30.75069052255799,46.10170199342977,khorramshahr,80.89,42,0,3.2
0.7352277102705784,-74.19599830486243,cartagena del chaira,73.42,96,20,1.97
-8.098438772392115,165.06011696126228,lata,83.14,100,92,5.77
52.21025974574533,52.06152390896955,kurmanayevka,10.69,93,0,4.43
55.77607904684163,-52.78354871424135,saint anthony,34.09,100,12,23.44
43.71633389274035,52.37799802081307,zhetybay,31.12,80,0,6.33
25.142122030551647,67.11045836134852,karachi,86.0,42,0,13.87
39.55957263829069,133.9001692444063,vrangel,47.23,84,64,24.56
-38.98868207081945,149.98961112279574,lakes entrance,66.58,100,92,15.05
57.162067280946104,160.8220093298931,klyuchi,8.89,76,68,2.98
56.63780360628752,12.602321673750936,halmstad,36.45,100,75,3.36
43.37526039236883,104.40650661890402,hovd,60.01,16,0,9.57
12.52973910474995,-69.46749520220837,westpunt,77.88,83,20,16.11
20.22243219243545,-2.02633374057973,araouane,82.42,19,0,9.01
46.099821199734606,-91.36255702852148,superior,25.57,53,75,4.7
-3.4465079905585725,39.221674686759656,mariakani,75.94,97,92,7.45
29.990891779086624,-134.69865677153214,half moon bay,62.89,100,56,21.65
-20.4813856040885,-148.0429225742731,teahupoo,82.6,97,56,11.25
29.373439909550683,27.151741676373177,marsa matruh,81.34,28,0,4.65
52.9460568804453,-124.94452492173491,vanderhoof,15.37,73,20,2.3
-25.922394170106145,37.06370694243219,inhambane,77.29,100,36,13.71
-32.27033918610214,114.59288179072433,mandurah,76.12,88,64,13.6
0.9493109859641464,48.1815648813683,mogadishu,80.26,100,0,6.89
48.411342781076655,95.97167484868578,erzin,27.16,66,20,11.48
3.220170933460551,-47.66947349192094,amapa,80.71,100,24,22.88
62.70467936952258,66.21901084909197,oktyabrskoye,20.14,70,48,7.67
54.71458571122372,11.654769187747092,sakskobing,37.6,95,92,8.79
32.175581689800524,88.80039103027502,lasa,23.47,70,20,10.02
-0.17929348560619474,17.394604345663964,mbandaka,80.98,86,8,3.09
68.11861663397463,69.25294409466252,yar-sale,1.51,90,88,9.8
25.558062587539695,-125.52744180900683,lompoc,66.58,98,92,5.77
-2.1128204054559347,119.2322327151752,rantepao,74.68,87,76,2.64
31.637786992502186,-89.68911882504672,hattiesburg,40.5,100,1,3.36
48.075336292595665,-63.98167092789561,grande-riviere,30.31,93,68,19.75
22.452527735689998,104.47097073360771,lao cai,65.68,90,88,2.53
-26.303390913244208,-70.84684134843998,diego de almagro,64.15,100,80,2.42
23.75466263217446,91.65517058661038,amarpur,91.4,49,20,3.36
21.60571484004643,116.07347999799379,jieshi,72.7,100,64,13.82
-4.326494533154872,106.70525481890365,metro,81.7,100,76,8.23
44.28590304596037,-11.120037633231078,muros,54.07,100,0,11.92
66.42537168504288,134.28713608895504,batagay,-18.03,49,0,2.19
51.87354794680826,47.35406033682733,volsk,7.81,99,20,4.65
-11.287520534326191,28.4071588890709,mansa,71.62,90,76,5.88
-7.73988632457575,-28.840065868049436,pitimbu,80.35,100,8,15.39
15.868917480644313,89.49188611480395,labutta,79.72,100,0,6.44
21.985718819270673,-17.18749564805853,nouadhibou,65.86,96,0,20.31
-24.94452105002827,-95.5618275833908,pisco,72.25,100,24,17.52
67.7743771849745,-166.21669591472235,nome,-4.98,82,0,15.84
-1.134941011230211,-76.02918470373595,nueva loja,72.79,94,32,2.08
20.52400113005035,103.95723552863967,xam nua,63.43,89,0,2.64
-26.553686768471024,42.90926968970169,beloha,79.81,100,56,17.52
33.17992072935489,-11.985987710020908,asfi,63.43,97,80,5.21
62.921653886465805,65.817773666552,andra,20.14,70,48,7.67
30.51021627487802,-84.19390500359911,tallahassee,42.35,70,1,5.82
46.14926635052538,-53.28324997534229,bay roberts,34.54,92,88,18.52
24.10338529321453,31.08136851247079,aswan,80.62,19,0,10.47
1.326322629271118,19.41532749636977,impfondo,88.72,62,20,2.19
23.037872554758493,3.6952739822499154,tessalit,82.78,14,0,5.66
18.035062527279734,44.029318472727596,najran,82.4,12,0,6.93
39.47617123639574,-83.45896958024292,wilmington,27.5,86,40,8.05
45.48115858976027,15.967530414882532,velika gorica,44.96,81,0,5.82
-12.054389656178898,31.022676501739312,mpika,68.29,100,68,11.03
53.47441098432816,22.492669111953063,grajewo,49.39,98,92,19.75
61.68632589136928,-1.864541195904195,brae,41.65,100,32,15.28
-30.860463655975884,55.71207287894475,saint-joseph,73.51,100,68,15.05
-9.246495196094997,-79.70671476110158,chimbote,68.83,99,92,5.66
56.84482646441589,101.45744539269623,bratsk,10.4,55,75,13.42
57.45362330389722,-111.05218073335031,grand centre,25.99,76,32,5.44
30.461639331749637,63.17563448867517,rudbar,81.61,20,12,12.26
-13.287047794894221,-72.178639304002,urubamba,48.2,87,90,2.24
-1.8983632438577018,-77.5997645323777,palora,69.46,95,0,2.3
65.37267504375438,132.7432132529388,verkhoyansk,-16.41,66,0,2.42
-11.348783104914972,10.268819934013123,benguela,78.01,100,12,9.8
-34.12695886056307,6.563131326974087,oranjemund,69.28,98,80,11.92
7.121845917722013,118.53865509118418,cagayan de tawi-tawi,79.09,100,48,7.9
43.288516083795685,-94.47332835574716,ledyard,22.14,85,40,13.87
29.39226132005237,7.839397852133317,warqla,71.71,45,0,9.01
63.40177368318422,134.2625353266311,khandyga,-10.02,66,0,2.53
22.158610030463706,79.23513635214351,amarwara,93.76,22,0,9.13
34.31108022912271,7.53051149877362,naftah,62.6,63,0,16.11
44.86850142643891,78.6002762224648,karabulak,44.8,97,24,5.88
58.41484576273808,6.975294419957777,lyngdal,47.1,82,75,11.41
-9.098561863995684,114.76088256060751,denpasar,81.34,100,64,0.29
43.87585357822513,-103.07223266648067,rapid valley,20.61,100,20,3.36
25.641207303186178,97.06215769314946,myitkyina,72.25,59,44,2.3
27.85701686227867,9.749961288790246,gat,68.0,30,0,16.11
47.44768248620184,30.407035689973696,shyryayeve,43.45,92,80,15.17
1.2762828581159198,51.53857006787581,hobyo,81.79,100,12,7.0
0.7265317574260735,162.62358749700928,buala,81.79,100,48,14.38
-7.626590454693101,-49.080022325454394,conceicao do araguaia,72.16,100,92,2.86
17.123197589085237,25.694927099479315,kutum,83.77,17,0,8.57
11.395055667213484,-104.04774299205002,ixtapa,80.17,100,44,3.98
49.05329360106575,-5.222206420119079,plouzane,48.76,100,92,7.11
-15.236534793435155,-29.478088088751008,maceio,80.71,99,0,13.49
47.38259874086438,-23.05014810161677,praia da vitoria,54.52,100,36,23.11
68.63784462986695,42.047182991219614,ostrovnoy,21.85,100,20,17.74
20.591265604769447,-86.44396342427771,cozumel,75.15,83,75,8.05
42.707131051148025,32.48856263367102,zonguldak,48.13,95,92,2.64
35.268107593750784,-7.356233562984585,kenitra,61.54,97,80,8.68
12.812443196967081,-58.458018687679555,oistins,78.73,100,92,18.52
43.82166713732187,14.167615984566709,porto recanati,57.2,62,40,14.99
3.841162633500815,15.858499374652013,nola,82.4,74,0,9.17
-38.68608784974177,23.904644838577013,plettenberg bay,71.62,95,24,18.07
37.873809890571664,-65.96579691489625,nantucket,64.24,100,92,33.17
80.01401801112846,-7.493198863191282,husavik,-8.49,82,36,13.82
66.04954546448508,-58.950377032460196,sisimiut,10.06,89,76,7.45
29.69537782229129,43.03750624287491,sakakah,77.0,17,0,14.99
40.8570086560276,2.230182512919839,el prat de llobregat,50.0,66,20,6.93
-21.245688461420144,-58.213409424369914,fuerte olimpo,78.55,88,0,7.9
9.158257580046723,2.050990742247791,beterou,86.65,60,0,8.12
68.47269683622613,64.03460853915402,severnyy,3.67,100,88,10.13
50.46095068885779,-100.5024213413288,rivers,4.66,50,0,8.79
25.321941273410687,32.06052125676891,esna,79.18,19,0,10.8
2.393957352596942,7.563418033959607,luba,82.69,100,0,5.32
6.568610512381412,63.34330345380718,ugoofaaru,82.24,100,8,6.44
11.211899183087112,-87.36300432747325,san rafael del sur,81.16,99,0,8.57
2.4790961237753777,-15.4105914655743,mattru,78.91,100,56,5.44
46.99647416654548,117.00157269546906,manzhouli,37.51,67,0,7.0
48.83665222215083,45.698506317972885,kapustin yar-1,17.44,100,0,8.46
47.750320966791605,12.265669965295388,ebbs,46.4,75,40,3.36
0.8707551869768508,31.63733385892226,kiboga,73.51,90,80,3.53
-38.47733578543327,-59.53989084286887,tres arroyos,55.42,58,0,9.35
-23.708306610137,-49.832982620522216,wenceslau braz,62.98,95,0,3.53
57.10280190660944,116.58891889139807,chara,-0.3,47,36,2.98
28.547517167060064,84.83906478770797,pokhara,20.59,88,0,1.74
-18.846475471799295,136.539450317086,mount isa,90.34,28,0,9.8
13.872349159046948,-90.60349840765774,iztapa,78.28,96,8,2.42
-39.07450260779599,-61.475208762689235,punta alta,64.69,100,0,21.88
60.65683221797423,132.48450152776837,amga,-5.7,68,0,2.86
41.586770828982,-130.8812646867286,eureka,48.85,100,92,19.53
44.223395553626744,-97.96287465383728,huron,22.3,100,1,8.05
56.962852808258646,54.143992629960536,votkinsk,15.82,90,0,7.45
13.93273770712105,-89.89137571542966,ahuachapan,72.34,81,20,1.97
-5.73449000504398,-37.74882950076446,apodi,67.75,92,20,2.64
17.314611347517243,108.46811397906833,hue,74.77,100,76,11.92
59.488201349269076,167.41298460758804,tilichiki,12.58,100,12,18.52
-9.607388025692288,139.9499426196391,merauke,78.64,100,92,2.08
6.463875685359213,-96.57713337678042,champerico,79.45,99,80,11.03
26.457936774314206,-113.25637392959489,santa rosalia,66.94,95,8,17.96
23.651360000243017,17.420428409346016,marzuq,84.31,21,0,5.55
-27.011449375844933,-24.119893957349205,vila velha,79.18,97,88,30.71
47.771956736345544,-54.471498204468375,marystown,31.93,96,88,11.7
-7.429236433465789,120.6389585525925,ruteng,84.31,96,0,15.73
2.9551243108994356,95.87332254417726,meulaboh,85.48,100,0,4.76
46.944853221437796,139.22907865052213,svetlaya,36.79,97,64,6.55
44.54918966794702,145.59978464869909,otradnoye,35.35,82,80,15.28
-11.260360868206462,-149.19549294806268,fare,83.95,97,92,13.04
21.651012057752325,36.82832101200603,jiddah,82.96,28,0,3.42
-17.474714344978082,-53.92604729506215,alto araguaia,70.63,96,56,2.98
-58.01247374583569,127.4528302351095,mount gambier,38.41,100,64,42.46
10.210563716406341,5.0258722758058525,kontagora,86.11,72,0,7.45
5.18927618539503,-110.27075030847632,coahuayana,78.55,100,64,11.25
6.252928853480185,50.60007674900115,eyl,81.79,100,0,9.13
-28.42043226850992,7.022143432245201,luderitz,71.08,100,88,3.31
10.750566567224453,35.86810163464611,bure,87.01,25,0,2.42
-18.835877912319077,-150.60782664257428,haapiti,81.16,100,32,10.36
40.19976420679072,54.15454900125647,balkanabat,39.04,100,0,5.66
43.098232361772006,58.124288203345486,kegayli,29.86,100,20,11.59
54.542046625403685,11.420619325871627,rodbyhavn,37.6,95,92,8.79
56.957675608626346,-15.012476271733675,westport,46.06,100,92,22.55
-6.515241644165869,-35.43462518038774,nova cruz,78.8,88,20,2.42
45.44010581700701,84.8060814669629,karamay,44.26,100,92,3.53
30.738047452769763,130.80458366635634,kaseda,62.6,59,40,5.82
-25.4152456696996,-62.89560761831551,san pedro,69.46,90,0,2.75
36.18973968465494,1.968131270423072,medea,53.6,87,40,6.93
21.998026598825007,81.87833235956845,takhatpur,97.27,28,0,8.9
5.143416197808378,34.7145991657961,kapoeta,90.97,34,44,6.67
24.102512802856566,76.10720293255912,pirawa,96.82,19,0,12.48
-13.041851742491275,38.770085006453826,montepuez,77.74,100,20,9.8
44.93808624946777,18.924185663246902,brcko,52.59,76,40,5.82
48.512083801004394,131.59211169347054,izvestkovyy,23.38,55,56,7.45
1.7096438276501402,139.65968488534838,biak,83.86,100,80,11.48
45.392617631687074,44.40860152714578,arzgir,31.66,85,8,15.05
63.179296119046626,60.78972448206147,polunochnoye,24.01,63,32,9.01
61.70399661763855,-55.36950467812672,nuuk,28.51,100,80,13.49
19.73987006289309,56.867883515743785,nizwa,88.36,46,0,9.35
53.165454447407626,-89.21938351828605,sioux lookout,-0.21,65,0,2.75
59.280234601003855,45.09887870868167,nikolsk,19.42,84,92,13.04
4.361110505998141,12.547520594582636,nanga eboko,81.79,67,12,2.98
-21.190974282319686,36.826452025146324,beira,80.98,100,76,14.94
-6.36397281620863,43.866074660680994,chake chake,82.24,100,44,4.65
41.13060311610391,30.227650998328613,agva,66.2,55,75,5.82
28.75992940708123,66.6381874500193,kalat,65.95,38,0,7.23
-21.070865369816005,-173.43150559040876,pangai,82.78,98,0,11.7
-49.1223403075761,-64.63729842211472,comodoro rivadavia,57.13,96,0,16.51
61.13858769981127,-123.37668429203381,fort nelson,22.39,71,0,1.86
0.5134421734926207,75.27788157957534,viligili,83.14,100,76,4.99
-25.87028396742531,127.36595568840272,yulara,88.63,21,0,15.05
5.55652214144493,-39.322821206343576,acarau,79.09,100,88,24.56
-24.745677582657777,122.89992408486614,port hedland,95.92,13,0,14.27
49.244121081342996,22.397738599250232,ustrzyki dolne,53.6,71,75,6.71
40.28683841444581,89.95463254346157,korla,77.65,12,56,19.19
10.946585214432616,93.95642069114524,port blair,83.86,100,0,11.36
45.8166783484144,-60.396536466767316,sydney,26.6,100,20,6.93
0.3531313138566077,12.868116706526678,makokou,79.54,88,44,2.98
-30.181413965308735,145.60991988461262,dubbo,80.71,35,0,2.64
52.31342867312591,119.27423040526463,ust-karsk,23.74,51,76,3.2
47.96962229948775,-81.41273017397961,timmins,17.6,85,90,10.29
-10.42430720266968,-51.57982859683756,formoso do araguaia,71.62,100,92,2.53
66.4024724560914,122.13847233010807,zhigansk,-7.05,60,48,3.42
73.77837609373884,-138.19366694612793,aklavik,-16.68,50,8,20.54
59.034328024665115,13.659629774286486,karlstad,33.8,86,90,11.41
-18.079051382397196,147.45235553650195,townsville,80.44,100,64,20.54
-42.08245665548555,146.15611984931684,ulverstone,50.65,86,24,5.21
-3.098834566589531,-54.0429266528774,santarem,74.23,94,64,2.42
-21.301719056678152,28.43776607373536,kobojango,73.6,72,68,15.05
-6.45592559185225,-33.156680301891214,cabedelo,81.7,100,92,12.48
-1.8699909450724732,111.35200886967851,pangkalanbuun,81.16,88,92,3.65
38.002125793305,124.38194902319356,dandong,45.7,85,0,19.19
-11.761382783251833,177.71104089569047,asau,84.58,99,12,17.52
-25.732501290627397,-52.37778916295116,chopinzinho,61.36,90,0,3.2
52.148616610545474,42.79363892287557,inzhavino,14.92,93,8,12.71
51.100866731719776,116.30685183067425,kalanguy,23.83,68,80,9.46
-5.821333736060893,140.57073984281192,kiunga,74.86,100,80,2.98
65.7880829546769,140.35339839388052,khonuu,-21.63,52,20,2.19
30.630026723241087,-15.661045357234087,santa cruz de tenerife,64.15,100,0,4.21
54.597948646600315,158.4052377695029,milkovo,11.32,61,24,2.98
41.672245048615,141.13730479748074,mutsu,46.4,93,75,23.04
44.7740698910759,1.5383177448548793,cahors,44.6,93,90,3.36
35.97145943865054,72.75430926530669,chitral,23.56,90,80,1.52
42.85859129858662,128.81734443593103,mingyue,46.78,74,0,9.24
20.76478421266451,7.302024105255015,arlit,86.83,17,0,4.54
48.227338171889954,10.181327593603129,illertissen,44.01,65,75,19.46
67.38681187622944,10.744946496221758,sorland,35.6,69,20,14.99
59.23609676590871,151.33561248924508,ola,1.51,100,32,5.32
38.06102040468056,44.995295372865,salmas,57.2,33,20,6.93
-10.69800514478861,148.32234104775478,port moresby,76.48,100,100,3.42
-32.73029215714955,-53.557076455628646,rio branco,61.99,100,0,3.65
28.84047493083662,75.18204694081405,taranagar,97.81,17,0,13.71
59.44484628262333,-117.97032702981366,high level,20.59,73,0,2.19
-2.891383090234868,121.72439086591606,kendari,74.59,96,76,0.96
3.89050078649484,35.132581589491,lodwar,85.3,55,44,2.98
9.199297902363426,-8.017878378324355,odienne,73.24,96,80,5.88
61.050258769829895,8.735917295790756,hemsedal,18.7,85,32,2.75
47.27107466490432,-68.41745007134021,madawaska,26.6,68,75,5.82
-22.364105861063337,-41.79663894657,macae,73.4,100,40,1.12
-17.505427387565035,176.49175904855446,isangel,84.58,97,32,15.84
46.21931622536562,133.58816790181277,dalnerechensk,30.94,94,92,4.43
5.789930072584426,2.83694365755224,cotonou,83.59,98,0,13.82
-3.4355932315033186,-26.416878644066657,nisia floresta,81.52,100,64,16.96
68.52313557839793,165.31523756204814,bilibino,-38.82,76,8,2.53
0.0658187966481023,168.65354628371256,tabiauea,84.22,100,44,18.19
7.889076744131515,4.65721435116464,ikirun,80.6,78,40,9.17
-15.218470236227347,-72.84852908915575,orcopampa,35.17,100,88,2.08
-0.8268744846746046,101.02039231312682,sijunjung,75.31,89,80,2.98
-10.468235451487274,-61.699552458666744,ji-parana,75.31,94,92,2.3
37.778885156155496,44.74267829294527,orumiyeh,57.2,33,20,6.93
39.38840778424046,-91.60193529480402,mexico,26.98,68,48,9.24
58.45674748025368,129.1276722345239,chagda,2.23,61,56,2.19
29.641951077983805,-5.453661856069033,marrakesh,66.04,27,0,8.34
49.2891995914016,124.02491280444718,nehe,33.28,63,64,2.64
32.2543563549759,102.83856316273915,tianpeng,33.37,53,88,5.21
68.883784259755,21.9853861560091,kautokeino,8.44,82,88,3.42
62.13174389388439,-15.7215637433886,hofn,44.62,100,76,26.91
21.248961577748062,-75.78035295100835,banes,76.21,98,68,5.44
-18.489562939238866,128.01035287157043,kununurra,95.02,18,0,11.81
31.388300515471997,-95.08890493312376,lufkin,40.55,93,1,3.98
47.619147312400656,-65.1450516419607,caraquet,26.6,92,90,3.36
53.02595404780445,72.58705251343662,bestobe,10.6,86,48,11.7
38.054159598717234,108.17527749097968,yinchuan,72.88,13,0,12.59
-9.296274185376888,38.94386659051224,mbekenyera,72.7,99,92,4.76
54.19332101023534,67.96540319747362,sergeyevka,14.92,93,0,8.12
27.937713734479686,22.20615957694173,jalu,77.74,30,0,7.45
-30.569323053726436,27.44875668768688,quthing,73.96,39,0,5.66
-3.161746608476804,126.30607358439016,ambon,80.53,100,76,9.57
-11.209559011403172,-67.5989388601433,placido de castro,76.12,94,68,2.75
36.89000174101146,26.854638486637555,khorion,64.4,77,40,13.94
62.09246059247164,-47.019322427494075,qaqortoq,-17.67,42,0,3.42
36.10897901287245,-84.08142016937137,clinton,34.72,74,90,8.05
54.72423390678085,128.83759361504832,zeya,15.19,68,44,3.76
46.23584559790197,-95.3926443525296,alexandria,16.59,92,1,6.93
40.43368836721589,-7.865099332603705,oliveira do hospital,50.29,97,88,2.98
58.707069149882756,158.05523312812653,tigil,7.81,100,48,13.71
52.028896129832106,-49.9591759858468,bonavista,37.96,96,44,18.97
-10.691972574218838,108.61178357668592,srandakan,84.76,100,36,2.53
24.509992534928315,28.152051946309,tahta,80.08,26,0,4.65
19.928633114024507,108.38885610918595,lingao,70.54,100,36,7.0
-5.703952768442235,-36.883446536364545,acu,67.66,91,8,3.65
19.214981372336993,58.44206741082195,ibra,77.11,100,0,8.68
40.07697464777476,144.60053775751868,miyako,47.59,79,56,22.32
37.50420995571773,20.399846689750802,mouzakion,62.6,63,40,9.17
6.418076248752229,-58.23287960822884,bartica,69.8,100,40,4.7
-3.986628317302504,120.05203957629135,singkang,82.33,78,64,9.24
16.24540895979024,75.46180535888121,bilgi,96.46,26,0,9.24
-0.13636651692046087,15.569359534969436,owando,83.41,82,32,3.2
65.22872731470503,65.11873887463355,muzhi,16.81,91,92,11.48
-10.805698394604377,153.3805884716436,samarai,81.34,100,76,4.21
19.341277265508978,13.644503893569237,bilma,86.92,30,0,4.54
45.83840540874914,49.123095290080926,marfino,22.57,100,20,9.46
-38.86608749438124,143.58762486345222,colac,63.34,100,76,12.26
-1.386768430565823,-80.2841493292589,sucre,77.0,88,40,2.42
3.727881283787198,-60.073992479775995,lethem,77.29,66,0,11.7
41.7036630510417,134.92025896137977,preobrazheniye,38.68,84,56,22.77
9.35706125672337,-15.152390122632312,boffa,75.85,100,0,5.44
35.202575881896095,-16.848470643113217,camacha,61.81,97,20,17.4
50.26052213443859,139.2059515933003,vysokogornyy,17.89,67,48,3.42
-14.749023706399228,35.24280675633253,mangochi,78.19,83,80,5.77
64.77162182562782,48.82073286040449,koslan,26.62,78,80,6.67
55.01115642417261,110.95607876252501,kurumkan,-0.39,55,36,4.76
66.19875925433314,33.5993779777277,chupa,25.54,89,88,7.56
50.60143292199018,101.79856632152854,kyren,19.96,67,80,7.78
-31.206922844930695,141.30546798772565,broken hill,73.42,32,0,13.27
53.185591386745585,-109.99690750502307,lloydminster,15.8,92,1,8.05
47.62848321843936,-96.43102921629503,grand forks,7.86,92,1,5.1
-49.12290122131268,175.3672731220684,dunedin,50.65,100,80,26.57
66.04214193483602,117.03778022914082,nyurba,-8.22,47,56,4.99
7.062228167361212,-6.922623335656624,daloa,77.2,86,48,4.32
49.01317902553575,11.913202037373111,kelheim,46.4,81,75,9.17
67.60889423726934,64.18229778394664,oktyabrskiy,17.89,89,76,16.28
-36.909258969427576,153.3617841258968,ulladulla,67.12,100,68,9.8
12.238286575594017,-0.8780404603436693,zorgo,87.8,52,20,9.17
46.35503893273503,26.963843674903245,racaciuni,44.6,100,75,2.24
-7.871480676166712,141.98644149306006,morehead,76.84,92,76,2.86
15.498612840277133,-67.41609875509315,guanica,79.99,95,0,21.77
47.770172201247476,136.16315401085706,mukhen,26.53,77,88,3.76
35.6383292209627,-12.78556361462256,aljezur,60.73,100,92,15.28
-34.36157604710526,-63.67828023702137,general pico,60.19,29,0,15.28
38.935345054652714,-80.96513288481667,parkersburg,29.39,79,90,8.05
52.82248709932679,23.156796862487425,bielsk podlaski,52.0,92,48,17.18
-4.0727566342933414,37.36136725937203,same,69.91,100,92,3.65
-9.908168993403379,107.25563169408593,singaparna,84.22,100,0,7.45
9.674476979093924,-55.604286035860355,mahaicony,78.82,100,92,21.54
26.48532279088994,-107.70291084440817,choix,57.67,70,8,2.08
-48.205920196984046,-77.7875707063702,coihaique,52.72,100,92,34.4
52.77481131888723,-0.4603813729146111,bourne,41.0,93,75,9.17
